{"type": "FeatureCollection", "features": [{"type": "Feature", "properties": {"name": "ABANO TERME", "id": "S05700", "region_code": 12, "region": "Veneto", "city": "A"}, "geometry": {"type": "Point", "coordinates": [11.811533, 45.355199]}}, {"type": "Feature", "properties": {"name": "ABBADIA LARIANA", "id": "S01416", "region_code": 1, "region": "Lombardia", "city": "A"}, "geometry": {"type": "Point", "coordinates": [9.335175, 45.895864]}}, {"type": "Feature", "properties": {"name": "ABBASANTA", "id": "S12873", "region_code": 20, "region": "Sardegna", "city": "A"}, "geometry": {"type": "Point", "coordinates": [8.817733, 40.128801]}}, {"type": "Feature", "properties": {"name": "ABBIATEGRASSO", "id": "S01062", "region_code": 1, "region": "Lombardia", "city": "A"}, "geometry": {"type": "Point", "coordinates": [8.921305, 45.400631]}}, {"type": "Feature", "properties": {"name": "ACATE", "id": "S12409", "region_code": 14, "region": "Sicilia", "city": "A"}, "geometry": {"type": "Point", "coordinates": [14.42545, 36.996592]}}, {"type": "Feature", "properties": {"name": "ACCIANO", "id": "S07423", "region_code": 19, "region": "Abruzzo", "city": "A"}, "geometry": {"type": "Point", "coordinates": [13.711345, 42.175994]}}, {"type": "Feature", "properties": {"name": "ACERRA", "id": "S09215", "region_code": 18, "region": "Campania", "city": "A"}, "geometry": {"type": "Point", "coordinates": [14.372243, 40.939066]}}, {"type": "Feature", "properties": {"name": "ACIREALE", "id": "S12328", "region_code": 14, "region": "Sicilia", "city": "A"}, "geometry": {"type": "Point", "coordinates": [15.163697, 37.600514]}}, {"type": "Feature", "properties": {"name": "ACQUA ACETOSA", "id": "S08715", "region_code": 5, "region": "Lazio", "city": "A"}, "geometry": {"type": "Point", "coordinates": [12.616449, 41.794294]}}, {"type": "Feature", "properties": {"name": "ACQUAFREDDA", "id": "S11722", "region_code": 15, "region": "Basilicata", "city": "A"}, "geometry": {"type": "Point", "coordinates": [15.671846, 40.035527]}}, {"type": "Feature", "properties": {"name": "ACQUANEGRA CREMONESE", "id": "S01913", "region_code": 1, "region": "Lombardia", "city": "A"}, "geometry": {"type": "Point", "coordinates": [9.888456, 45.172102]}}, {"type": "Feature", "properties": {"name": "ACQUAPPESA", "id": "S11736", "region_code": 17, "region": "Calabria", "city": "A"}, "geometry": {"type": "Point", "coordinates": [15.955992, 39.48648]}}, {"type": "Feature", "properties": {"name": "ACQUAVIVA", "id": "S12209", "region_code": 14, "region": "Sicilia", "city": "A"}, "geometry": {"type": "Point", "coordinates": [13.674927, 37.570258]}}, {"type": "Feature", "properties": {"name": "ACQUAVIVA DELLE FONTI", "id": "S11504", "region_code": 16, "region": "Puglia", "city": "A"}, "geometry": {"type": "Point", "coordinates": [16.839826, 40.892806]}}, {"type": "Feature", "properties": {"name": "ACQUEDOLCI-S.FRATELLO", "id": "S12026", "region_code": 14, "region": "Sicilia", "city": "A"}, "geometry": {"type": "Point", "coordinates": [14.587597, 38.058459]}}, {"type": "Feature", "properties": {"name": "ACQUI TERME", "id": "S00867", "region_code": 3, "region": "Piemonte", "city": "Acqui"}, "geometry": {"type": "Point", "coordinates": [8.474482, 44.67407]}}, {"type": "Feature", "properties": {"name": "ACRI BISIGNANO LUZZI", "id": "S11907", "region_code": 17, "region": "Calabria", "city": "A"}, "geometry": {"type": "Point", "coordinates": [16.245177, 39.441389]}}, {"type": "Feature", "properties": {"name": "ADRIA", "id": "S05420", "region_code": 12, "region": "Veneto", "city": "A"}, "geometry": {"type": "Point", "coordinates": [12.054228, 45.06058]}}, {"type": "Feature", "properties": {"name": "AFRICO NUOVO", "id": "S11872", "region_code": 17, "region": "Calabria", "city": "A"}, "geometry": {"type": "Point", "coordinates": [16.144283, 38.053759]}}, {"type": "Feature", "properties": {"name": "AGLIANO CASTELNUOVO CALCEA", "id": "S00804", "region_code": 3, "region": "Piemonte", "city": "A"}, "geometry": {"type": "Point", "coordinates": [8.267723, 44.786108]}}, {"type": "Feature", "properties": {"name": "AGRIGENTO BASSA", "id": "S12213", "region_code": 14, "region": "Sicilia", "city": "Agrigento Bassa"}, "geometry": {"type": "Point", "coordinates": [13.588094, 37.319148]}}, {"type": "Feature", "properties": {"name": "AGRIGENTO CENTRALE", "id": "S12216", "region_code": 14, "region": "Sicilia", "city": "Agrigento C.le"}, "geometry": {"type": "Point", "coordinates": [13.584412, 37.309051]}}, {"type": "Feature", "properties": {"name": "AGROPOLI CASTELLABATE", "id": "S11705", "region_code": 18, "region": "Campania", "city": "A"}, "geometry": {"type": "Point", "coordinates": [15.002053, 40.351521]}}, {"type": "Feature", "properties": {"name": "AIRASCA", "id": "S00514", "region_code": 3, "region": "Piemonte", "city": "A"}, "geometry": {"type": "Point", "coordinates": [7.483536, 44.928093]}}, {"type": "Feature", "properties": {"name": "AIROLE", "id": "S04481", "region_code": 2, "region": "Liguria", "city": "A"}, "geometry": {"type": "Point", "coordinates": [7.552757, 43.870494]}}, {"type": "Feature", "properties": {"name": "AIRUNO", "id": "S01515", "region_code": 1, "region": "Lombardia", "city": "A"}, "geometry": {"type": "Point", "coordinates": [9.422066, 45.754086]}}, {"type": "Feature", "properties": {"name": "ALA", "id": "S02049", "region_code": 9, "region": "N/A", "city": "A"}, "geometry": {"type": "Point", "coordinates": [10.996775, 45.760087]}}, {"type": "Feature", "properties": {"name": "ALANNO", "id": "S07708", "region_code": 19, "region": "Abruzzo", "city": "A"}, "geometry": {"type": "Point", "coordinates": [14.019595, 42.287185]}}, {"type": "Feature", "properties": {"name": "ALANO FENER VALDOBBIADENE", "id": "S02566", "region_code": 12, "region": "Veneto", "city": "A"}, "geometry": {"type": "Point", "coordinates": [11.944546, 45.90229]}}, {"type": "Feature", "properties": {"name": "ALASSIO", "id": "S04515", "region_code": 2, "region": "Liguria", "city": "A"}, "geometry": {"type": "Point", "coordinates": [8.17112, 44.007889]}}, {"type": "Feature", "properties": {"name": "ALBA", "id": "S00825", "region_code": 3, "region": "Piemonte", "city": "A"}, "geometry": {"type": "Point", "coordinates": [8.030629, 44.697713]}}, {"type": "Feature", "properties": {"name": "ALBA ADRIATICA NERETO CONTR.", "id": "S07800", "region_code": 19, "region": "Abruzzo", "city": "A"}, "geometry": {"type": "Point", "coordinates": [13.91733, 42.83438]}}, {"type": "Feature", "properties": {"name": "ALBACINA", "id": "S07207", "region_code": 11, "region": "Marche", "city": "Albacina"}, "geometry": {"type": "Point", "coordinates": [12.986501, 43.345686]}}, {"type": "Feature", "properties": {"name": "ALBANO DI LUCANIA", "id": "S11453", "region_code": 15, "region": "Basilicata", "city": "A"}, "geometry": {"type": "Point", "coordinates": [16.021247, 40.574707]}}, {"type": "Feature", "properties": {"name": "ALBANO LAZIALE", "id": "S08704", "region_code": 5, "region": "Lazio", "city": "Albano"}, "geometry": {"type": "Point", "coordinates": [12.658056, 41.72632]}}, {"type": "Feature", "properties": {"name": "ALBANO S.ALESSANDRO", "id": "S01534", "region_code": 1, "region": "Lombardia", "city": "A"}, "geometry": {"type": "Point", "coordinates": [9.768027, 45.682744]}}, {"type": "Feature", "properties": {"name": "ALBANOVA", "id": "S09004", "region_code": 18, "region": "Campania", "city": "A"}, "geometry": {"type": "Point", "coordinates": [14.128596, 40.996117]}}, {"type": "Feature", "properties": {"name": "ALBAREDO", "id": "S02538", "region_code": 12, "region": "Veneto", "city": "A"}, "geometry": {"type": "Point", "coordinates": [12.015104, 45.670265]}}, {"type": "Feature", "properties": {"name": "ALBATE CAMERLATA", "id": "S01310", "region_code": 1, "region": "Lombardia", "city": "Albate"}, "geometry": {"type": "Point", "coordinates": [9.073461, 45.777371]}}, {"type": "Feature", "properties": {"name": "ALBATE-TRECALLO", "id": "S01450", "region_code": 1, "region": "Lombardia", "city": "A"}, "geometry": {"type": "Point", "coordinates": [9.095752, 45.777391]}}, {"type": "Feature", "properties": {"name": "ALBENGA", "id": "S04516", "region_code": 2, "region": "Liguria", "city": "Albenga"}, "geometry": {"type": "Point", "coordinates": [8.221663, 44.04722]}}, {"type": "Feature", "properties": {"name": "ALBERESE", "id": "S08001", "region_code": 13, "region": "Toscana", "city": "A"}, "geometry": {"type": "Point", "coordinates": [11.1352, 42.634158]}}, {"type": "Feature", "properties": {"name": "ALBINIA", "id": "S08003", "region_code": 13, "region": "Toscana", "city": "A"}, "geometry": {"type": "Point", "coordinates": [11.21134, 42.502165]}}, {"type": "Feature", "properties": {"name": "ALBISOLA", "id": "S04529", "region_code": 2, "region": "Liguria", "city": "A"}, "geometry": {"type": "Point", "coordinates": [8.512092, 44.33469]}}, {"type": "Feature", "properties": {"name": "ALBIZZATE SOLBIATE ARNO", "id": "S01209", "region_code": 1, "region": "Lombardia", "city": "A"}, "geometry": {"type": "Point", "coordinates": [8.80621, 45.724117]}}, {"type": "Feature", "properties": {"name": "ALBONESE", "id": "S00033", "region_code": 1, "region": "Lombardia", "city": "A"}, "geometry": {"type": "Point", "coordinates": [8.714601, 45.297785]}}, {"type": "Feature", "properties": {"name": "ALBUZZANO", "id": "S01863", "region_code": 1, "region": "Lombardia", "city": "A"}, "geometry": {"type": "Point", "coordinates": [9.261624, 45.172504]}}, {"type": "Feature", "properties": {"name": "ALCAMO DIRAMAZIONE", "id": "S12150", "region_code": 14, "region": "Sicilia", "city": "A"}, "geometry": {"type": "Point", "coordinates": [12.915916, 37.978894]}}, {"type": "Feature", "properties": {"name": "ALCANTARA", "id": "S12320", "region_code": 14, "region": "Sicilia", "city": "A"}, "geometry": {"type": "Point", "coordinates": [15.251158, 37.82145]}}, {"type": "Feature", "properties": {"name": "ALESSANDRIA", "id": "S00470", "region_code": 3, "region": "Piemonte", "city": "Alessandria"}, "geometry": {"type": "Point", "coordinates": [8.606498, 44.909091]}}, {"type": "Feature", "properties": {"name": "ALFEDENA-SCONTRONE", "id": "S08908", "region_code": 19, "region": "Abruzzo", "city": "A"}, "geometry": {"type": "Point", "coordinates": [14.044662, 41.738222]}}, {"type": "Feature", "properties": {"name": "ALFONSINE", "id": "S05808", "region_code": 8, "region": "Emilia Romagna", "city": "A"}, "geometry": {"type": "Point", "coordinates": [12.039155, 44.512364]}}, {"type": "Feature", "properties": {"name": "ALICE BELCOLLE", "id": "S00809", "region_code": 3, "region": "Piemonte", "city": "A"}, "geometry": {"type": "Point", "coordinates": [8.440076, 44.722636]}}, {"type": "Feature", "properties": {"name": "ALI` TERME", "id": "S12310", "region_code": 14, "region": "Sicilia", "city": "A"}, "geometry": {"type": "Point", "coordinates": [15.435184, 38.013952]}}, {"type": "Feature", "properties": {"name": "ALLERONA-CASTEL VISCARDO", "id": "S08202", "region_code": 6, "region": "Umbria", "city": "Allerona"}, "geometry": {"type": "Point", "coordinates": [12.035236, 42.78502]}}, {"type": "Feature", "properties": {"name": "ALPIGNANO", "id": "S00216", "region_code": 3, "region": "Piemonte", "city": "A"}, "geometry": {"type": "Point", "coordinates": [7.523745, 45.091077]}}, {"type": "Feature", "properties": {"name": "ALTAMURA", "id": "S11307", "region_code": 16, "region": "Puglia", "city": "A"}, "geometry": {"type": "Point", "coordinates": [16.551739, 40.837666]}}, {"type": "Feature", "properties": {"name": "ALTARE", "id": "S04810", "region_code": 2, "region": "Liguria", "city": "A"}, "geometry": {"type": "Point", "coordinates": [8.332753, 44.336169]}}, {"type": "Feature", "properties": {"name": "ALTAVILLA IRPINA", "id": "S09511", "region_code": 18, "region": "Campania", "city": "A"}, "geometry": {"type": "Point", "coordinates": [14.782833, 41.015265]}}, {"type": "Feature", "properties": {"name": "ALTAVILLA M.", "id": "S12011", "region_code": 14, "region": "Sicilia", "city": "A"}, "geometry": {"type": "Point", "coordinates": [13.554421, 38.048392]}}, {"type": "Feature", "properties": {"name": "ALTAVILLA TAVERNELLE", "id": "S02444", "region_code": 12, "region": "Veneto", "city": "A"}, "geometry": {"type": "Point", "coordinates": [11.454702, 45.511805]}}, {"type": "Feature", "properties": {"name": "ALTOPASCIO", "id": "S06407", "region_code": 13, "region": "Toscana", "city": "A"}, "geometry": {"type": "Point", "coordinates": [10.672754, 43.817418]}}, {"type": "Feature", "properties": {"name": "ALVIANO", "id": "S08206", "region_code": 6, "region": "Umbria", "city": "A"}, "geometry": {"type": "Point", "coordinates": [12.259583, 42.591917]}}, {"type": "Feature", "properties": {"name": "AMANTEA", "id": "S11744", "region_code": 17, "region": "Calabria", "city": "A"}, "geometry": {"type": "Point", "coordinates": [16.068448, 39.134353]}}, {"type": "Feature", "properties": {"name": "AMBIVERE MAPELLO", "id": "S01527", "region_code": 1, "region": "Lombardia", "city": "A"}, "geometry": {"type": "Point", "coordinates": [9.550444, 45.722163]}}, {"type": "Feature", "properties": {"name": "AMENDOLA", "id": "S11051", "region_code": 16, "region": "Puglia", "city": "A"}, "geometry": {"type": "Point", "coordinates": [15.732569, 41.518025]}}, {"type": "Feature", "properties": {"name": "AMENDOLARA ORIOLO", "id": "S11807", "region_code": 17, "region": "Calabria", "city": "A"}, "geometry": {"type": "Point", "coordinates": [16.60308, 39.933731]}}, {"type": "Feature", "properties": {"name": "AMOROSI MELIZZANO", "id": "S09306", "region_code": 18, "region": "Campania", "city": "A"}, "geometry": {"type": "Point", "coordinates": [14.470759, 41.173509]}}, {"type": "Feature", "properties": {"name": "ANAGNI-FIUGGI", "id": "S08658", "region_code": 5, "region": "Lazio", "city": "A"}, "geometry": {"type": "Point", "coordinates": [13.09597, 41.71037]}}, {"type": "Feature", "properties": {"name": "ANCONA", "id": "S07113", "region_code": 11, "region": "Marche", "city": "Ancona"}, "geometry": {"type": "Point", "coordinates": [13.497665, 43.607734]}}, {"type": "Feature", "properties": {"name": "ANCONA MARITTIMA", "id": "S07116", "region_code": 11, "region": "Marche", "city": "A"}, "geometry": {"type": "Point", "coordinates": [13.50911, 43.619445]}}, {"type": "Feature", "properties": {"name": "ANCONA TORRETTE", "id": "S07015", "region_code": 11, "region": "Marche", "city": "A"}, "geometry": {"type": "Point", "coordinates": [13.455777, 43.609936]}}, {"type": "Feature", "properties": {"name": "ANCONETTA", "id": "S02141", "region_code": 12, "region": "Veneto", "city": "A"}, "geometry": {"type": "Point", "coordinates": [11.567865, 45.565249]}}, {"type": "Feature", "properties": {"name": "ANGRI", "id": "S09812", "region_code": 18, "region": "Campania", "city": "A"}, "geometry": {"type": "Point", "coordinates": [14.575366, 40.746404]}}, {"type": "Feature", "properties": {"name": "ANGUILLARA", "id": "S08318", "region_code": 5, "region": "Lazio", "city": "A"}, "geometry": {"type": "Point", "coordinates": [12.304978, 42.068133]}}, {"type": "Feature", "properties": {"name": "ANNONE VENETO", "id": "S02769", "region_code": 12, "region": "Veneto", "city": "A"}, "geometry": {"type": "Point", "coordinates": [12.680334, 45.774904]}}, {"type": "Feature", "properties": {"name": "ANTIGNANO", "id": "S06727", "region_code": 13, "region": "Toscana", "city": "A"}, "geometry": {"type": "Point", "coordinates": [10.328827, 43.492482]}}, {"type": "Feature", "properties": {"name": "ANTRODOCO BORGO VELINO", "id": "S07408", "region_code": 5, "region": "Lazio", "city": "A"}, "geometry": {"type": "Point", "coordinates": [13.076193, 42.415393]}}, {"type": "Feature", "properties": {"name": "ANTRODOCO CENTRO", "id": "S07435", "region_code": 5, "region": "Lazio", "city": "A"}, "geometry": {"type": "Point", "coordinates": [13.07096, 42.409844]}}, {"type": "Feature", "properties": {"name": "ANVERSA-VILLALAGO-SCANNO", "id": "S08537", "region_code": 19, "region": "Abruzzo", "city": "A"}, "geometry": {"type": "Point", "coordinates": [13.835618, 42.017261]}}, {"type": "Feature", "properties": {"name": "ANZANO DEL PARCO", "id": "S01453", "region_code": 1, "region": "Lombardia", "city": "A"}, "geometry": {"type": "Point", "coordinates": [9.202676, 45.764965]}}, {"type": "Feature", "properties": {"name": "ANZIO", "id": "S08709", "region_code": 5, "region": "Lazio", "city": "A"}, "geometry": {"type": "Point", "coordinates": [12.633205, 41.4532]}}, {"type": "Feature", "properties": {"name": "ANZIO COLONIA", "id": "S08713", "region_code": 5, "region": "Lazio", "city": "A"}, "geometry": {"type": "Point", "coordinates": [12.617442, 41.459893]}}, {"type": "Feature", "properties": {"name": "AOSTA", "id": "S00137", "region_code": 4, "region": "Valle d'Aosta", "city": "Aosta"}, "geometry": {"type": "Point", "coordinates": [7.322424, 45.73407]}}, {"type": "Feature", "properties": {"name": "AOSTA ISTITUTO", "id": "S00143", "region_code": 4, "region": "Valle d'Aosta", "city": "A"}, "geometry": {"type": "Point", "coordinates": [7.303076, 45.732938]}}, {"type": "Feature", "properties": {"name": "AOSTA VIALE EUROPA", "id": "S00146", "region_code": 4, "region": "Valle d'Aosta", "city": "A"}, "geometry": {"type": "Point", "coordinates": [7.297371, 45.733294]}}, {"type": "Feature", "properties": {"name": "APICE S.ARCANGELO BONITO", "id": "S09314", "region_code": 18, "region": "Campania", "city": "Apice S.A.B."}, "geometry": {"type": "Point", "coordinates": [14.918733, 41.140927]}}, {"type": "Feature", "properties": {"name": "APPIANO", "id": "S08328", "region_code": 5, "region": "Lazio", "city": "A"}, "geometry": {"type": "Point", "coordinates": [12.43838, 41.909342]}}, {"type": "Feature", "properties": {"name": "APRICENA", "id": "S11024", "region_code": 16, "region": "Puglia", "city": "A"}, "geometry": {"type": "Point", "coordinates": [15.387809, 41.77664]}}, {"type": "Feature", "properties": {"name": "APRILIA", "id": "S08705", "region_code": 5, "region": "Lazio", "city": "A"}, "geometry": {"type": "Point", "coordinates": [12.639126, 41.592386]}}, {"type": "Feature", "properties": {"name": "AQUILONIA", "id": "S09623", "region_code": 18, "region": "Campania", "city": "A"}, "geometry": {"type": "Point", "coordinates": [15.541249, 40.940252]}}, {"type": "Feature", "properties": {"name": "ARAGONA CALDARE", "id": "S12370", "region_code": 14, "region": "Sicilia", "city": "Aragona Caldare"}, "geometry": {"type": "Point", "coordinates": [13.636837, 37.381097]}}, {"type": "Feature", "properties": {"name": "ARBIA", "id": "S06811", "region_code": 13, "region": "Toscana", "city": "A"}, "geometry": {"type": "Point", "coordinates": [11.406225, 43.294393]}}, {"type": "Feature", "properties": {"name": "ARBOSTELLA", "id": "S09838", "region_code": 18, "region": "Campania", "city": "A"}, "geometry": {"type": "Point", "coordinates": [15.623814, 40.677263]}}, {"type": "Feature", "properties": {"name": "ARCE", "id": "S08861", "region_code": 5, "region": "Lazio", "city": "A"}, "geometry": {"type": "Point", "coordinates": [13.571848, 41.583695]}}, {"type": "Feature", "properties": {"name": "ARCISATE", "id": "S01203", "region_code": 1, "region": "Lombardia", "city": "A"}, "geometry": {"type": "Point", "coordinates": [8.86241, 45.858579]}}, {"type": "Feature", "properties": {"name": "ARCOLA", "id": "S06006", "region_code": 2, "region": "Liguria", "city": "Arcola"}, "geometry": {"type": "Point", "coordinates": [9.914649, 44.118651]}}, {"type": "Feature", "properties": {"name": "ARCORE", "id": "S01510", "region_code": 1, "region": "Lombardia", "city": "A"}, "geometry": {"type": "Point", "coordinates": [9.322798, 45.623493]}}, {"type": "Feature", "properties": {"name": "ARDARA", "id": "S12817", "region_code": 20, "region": "Sardegna", "city": "A"}, "geometry": {"type": "Point", "coordinates": [8.818996, 40.632139]}}, {"type": "Feature", "properties": {"name": "ARDENNO MASINO", "id": "S01427", "region_code": 1, "region": "Lombardia", "city": "A"}, "geometry": {"type": "Point", "coordinates": [9.651374, 46.16198]}}, {"type": "Feature", "properties": {"name": "ARDORE", "id": "S11853", "region_code": 17, "region": "Calabria", "city": "A"}, "geometry": {"type": "Point", "coordinates": [16.207311, 38.175698]}}, {"type": "Feature", "properties": {"name": "ARENA PO", "id": "S01947", "region_code": 1, "region": "Lombardia", "city": "A"}, "geometry": {"type": "Point", "coordinates": [9.360394, 45.082065]}}, {"type": "Feature", "properties": {"name": "ARENZANO", "id": "S04533", "region_code": 2, "region": "Liguria", "city": "A"}, "geometry": {"type": "Point", "coordinates": [8.678322, 44.403089]}}, {"type": "Feature", "properties": {"name": "AREZZO", "id": "S06915", "region_code": 13, "region": "Toscana", "city": "Arezzo"}, "geometry": {"type": "Point", "coordinates": [11.874189, 43.461725]}}, {"type": "Feature", "properties": {"name": "ARGENTA", "id": "S05804", "region_code": 8, "region": "Emilia Romagna", "city": "A"}, "geometry": {"type": "Point", "coordinates": [11.841267, 44.616867]}}, {"type": "Feature", "properties": {"name": "ARIANO IRPINO", "id": "S09316", "region_code": 18, "region": "Campania", "city": "A"}, "geometry": {"type": "Point", "coordinates": [15.117508, 41.181883]}}, {"type": "Feature", "properties": {"name": "ARONA", "id": "S01020", "region_code": 3, "region": "Piemonte", "city": "Arona"}, "geometry": {"type": "Point", "coordinates": [8.559075, 45.755392]}}, {"type": "Feature", "properties": {"name": "ARPINO", "id": "S08859", "region_code": 5, "region": "Lazio", "city": "A"}, "geometry": {"type": "Point", "coordinates": [13.59959, 41.648296]}}, {"type": "Feature", "properties": {"name": "ARQUATA SCRIVIA", "id": "S04207", "region_code": 3, "region": "Piemonte", "city": "Arquata"}, "geometry": {"type": "Point", "coordinates": [8.885342, 44.692533]}}, {"type": "Feature", "properties": {"name": "ARQUA`", "id": "S05707", "region_code": 12, "region": "Veneto", "city": "A"}, "geometry": {"type": "Point", "coordinates": [11.748518, 45.006465]}}, {"type": "Feature", "properties": {"name": "ARSOLI", "id": "S08516", "region_code": 5, "region": "Lazio", "city": "A"}, "geometry": {"type": "Point", "coordinates": [13.013064, 42.045852]}}, {"type": "Feature", "properties": {"name": "ARTEGNA", "id": "S03021", "region_code": 10, "region": "Friuli-Venezia Giulia", "city": "A"}, "geometry": {"type": "Point", "coordinates": [13.162328, 46.23115]}}, {"type": "Feature", "properties": {"name": "ARVIER", "id": "S00134", "region_code": 4, "region": "Valle d'Aosta", "city": "A"}, "geometry": {"type": "Point", "coordinates": [7.166681, 45.704259]}}, {"type": "Feature", "properties": {"name": "ASCEA", "id": "S11711", "region_code": 18, "region": "Campania", "city": "A"}, "geometry": {"type": "Point", "coordinates": [15.172626, 40.140955]}}, {"type": "Feature", "properties": {"name": "ASCIANO", "id": "S06813", "region_code": 13, "region": "Toscana", "city": "Asciano"}, "geometry": {"type": "Point", "coordinates": [11.579237, 43.235245]}}, {"type": "Feature", "properties": {"name": "ASCIANO MONTE OLIVETO MAGGIORE", "id": "S06825", "region_code": 13, "region": "Toscana", "city": "A"}, "geometry": {"type": "Point", "coordinates": [11.563621, 43.231706]}}, {"type": "Feature", "properties": {"name": "ASCOLI PICENO", "id": "S07550", "region_code": 11, "region": "Marche", "city": "Ascoli Piceno"}, "geometry": {"type": "Point", "coordinates": [13.587939, 42.855474]}}, {"type": "Feature", "properties": {"name": "ASCOLI SATRIANO", "id": "S11203", "region_code": 16, "region": "Puglia", "city": "A"}, "geometry": {"type": "Point", "coordinates": [15.547828, 41.219859]}}, {"type": "Feature", "properties": {"name": "ASOLA", "id": "S01847", "region_code": 1, "region": "Lombardia", "city": "A"}, "geometry": {"type": "Point", "coordinates": [10.402313, 45.220454]}}, {"type": "Feature", "properties": {"name": "ASSEMINI", "id": "S12889", "region_code": 20, "region": "Sardegna", "city": "A"}, "geometry": {"type": "Point", "coordinates": [8.997936, 39.287603]}}, {"type": "Feature", "properties": {"name": "ASSISI", "id": "S07008", "region_code": 6, "region": "Umbria", "city": "A"}, "geometry": {"type": "Point", "coordinates": [12.585304, 43.058921]}}, {"type": "Feature", "properties": {"name": "ASSO", "id": "S01101", "region_code": 1, "region": "Lombardia", "city": "Asso"}, "geometry": {"type": "Point", "coordinates": [9.268513, 45.855228]}}, {"type": "Feature", "properties": {"name": "ASTI", "id": "S00462", "region_code": 3, "region": "Piemonte", "city": "Asti"}, "geometry": {"type": "Point", "coordinates": [8.208112, 44.89479]}}, {"type": "Feature", "properties": {"name": "ATENA", "id": "S09904", "region_code": 18, "region": "Campania", "city": "A"}, "geometry": {"type": "Point", "coordinates": [15.536094, 40.456676]}}, {"type": "Feature", "properties": {"name": "ATTIGLIANO", "id": "S08207", "region_code": 6, "region": "Umbria", "city": "Attigliano"}, "geometry": {"type": "Point", "coordinates": [12.294761, 42.518054]}}, {"type": "Feature", "properties": {"name": "AUGUSTA", "id": "S12345", "region_code": 14, "region": "Sicilia", "city": "A"}, "geometry": {"type": "Point", "coordinates": [15.218628, 37.24334]}}, {"type": "Feature", "properties": {"name": "AULETTA", "id": "S09902", "region_code": 18, "region": "Campania", "city": "A"}, "geometry": {"type": "Point", "coordinates": [15.426706, 40.534934]}}, {"type": "Feature", "properties": {"name": "AULLA", "id": "S06168", "region_code": 13, "region": "Toscana", "city": "Aulla"}, "geometry": {"type": "Point", "coordinates": [9.970632, 44.209662]}}, {"type": "Feature", "properties": {"name": "AULLA LUNIGIANA", "id": "S06013", "region_code": 13, "region": "Toscana", "city": "A"}, "geometry": {"type": "Point", "coordinates": [9.970015, 44.210555]}}, {"type": "Feature", "properties": {"name": "AURISINA", "id": "S03550", "region_code": 10, "region": "Friuli-Venezia Giulia", "city": "A"}, "geometry": {"type": "Point", "coordinates": [13.687706, 45.753943]}}, {"type": "Feature", "properties": {"name": "AVELLINO", "id": "S09514", "region_code": 18, "region": "Campania", "city": "Avellino"}, "geometry": {"type": "Point", "coordinates": [14.820586, 40.921612]}}, {"type": "Feature", "properties": {"name": "AVERSA", "id": "S09006", "region_code": 18, "region": "Campania", "city": "Aversa"}, "geometry": {"type": "Point", "coordinates": [14.218578, 40.973323]}}, {"type": "Feature", "properties": {"name": "AVEZZANO", "id": "S08526", "region_code": 19, "region": "Abruzzo", "city": "Avezzano"}, "geometry": {"type": "Point", "coordinates": [13.426446, 42.039495]}}, {"type": "Feature", "properties": {"name": "AVIANO", "id": "S03087", "region_code": 10, "region": "Friuli-Venezia Giulia", "city": "A"}, "geometry": {"type": "Point", "coordinates": [12.590686, 46.064362]}}, {"type": "Feature", "properties": {"name": "AVIGLIANA", "id": "S00214", "region_code": 3, "region": "Piemonte", "city": "A"}, "geometry": {"type": "Point", "coordinates": [7.401096, 45.085276]}}, {"type": "Feature", "properties": {"name": "AVIGLIANO LUCANIA", "id": "S11214", "region_code": 15, "region": "Basilicata", "city": "A"}, "geometry": {"type": "Point", "coordinates": [15.785619, 40.714667]}}, {"type": "Feature", "properties": {"name": "AVIO", "id": "S02050", "region_code": 9, "region": "N/A", "city": "A"}, "geometry": {"type": "Point", "coordinates": [10.955842, 45.733892]}}, {"type": "Feature", "properties": {"name": "AVISE", "id": "S00133", "region_code": 4, "region": "Valle d'Aosta", "city": "A"}, "geometry": {"type": "Point", "coordinates": [7.131285, 45.706296]}}, {"type": "Feature", "properties": {"name": "AVOLA", "id": "S12426", "region_code": 14, "region": "Sicilia", "city": "A"}, "geometry": {"type": "Point", "coordinates": [15.125733, 36.907434]}}, {"type": "Feature", "properties": {"name": "BADIA POLESINE", "id": "S02370", "region_code": 12, "region": "Veneto", "city": "A"}, "geometry": {"type": "Point", "coordinates": [11.484722, 45.094439]}}, {"type": "Feature", "properties": {"name": "BADOLATO", "id": "S11841", "region_code": 17, "region": "Calabria", "city": "A"}, "geometry": {"type": "Point", "coordinates": [16.567646, 38.572268]}}, {"type": "Feature", "properties": {"name": "BAGHERIA", "id": "S12008", "region_code": 14, "region": "Sicilia", "city": "A"}, "geometry": {"type": "Point", "coordinates": [13.507215, 38.089905]}}, {"type": "Feature", "properties": {"name": "BAGNACAVALLO", "id": "S05902", "region_code": 8, "region": "Emilia Romagna", "city": "A"}, "geometry": {"type": "Point", "coordinates": [11.969398, 44.412138]}}, {"type": "Feature", "properties": {"name": "BAGNARA", "id": "S11770", "region_code": 17, "region": "Calabria", "city": "Bagnara"}, "geometry": {"type": "Point", "coordinates": [15.800327, 38.282695]}}, {"type": "Feature", "properties": {"name": "BAGNARIA ARSA", "id": "S03123", "region_code": 10, "region": "Friuli-Venezia Giulia", "city": "A"}, "geometry": {"type": "Point", "coordinates": [13.282026, 45.885513]}}, {"type": "Feature", "properties": {"name": "BAGNASCO", "id": "S00921", "region_code": 3, "region": "Piemonte", "city": "A"}, "geometry": {"type": "Point", "coordinates": [8.046132, 44.303264]}}, {"type": "Feature", "properties": {"name": "BAGNI DI LUCCA", "id": "S06308", "region_code": 13, "region": "Toscana", "city": "A"}, "geometry": {"type": "Point", "coordinates": [10.551631, 44.003447]}}, {"type": "Feature", "properties": {"name": "BAGNI DI TIVOLI", "id": "S08504", "region_code": 5, "region": "Lazio", "city": "A"}, "geometry": {"type": "Point", "coordinates": [12.722208, 41.949593]}}, {"type": "Feature", "properties": {"name": "BAGNOLI AGNANO TERME", "id": "S09102", "region_code": 18, "region": "Campania", "city": "A"}, "geometry": {"type": "Point", "coordinates": [14.166694, 40.819444]}}, {"type": "Feature", "properties": {"name": "BAGNOLI IRPINO", "id": "S09613", "region_code": 18, "region": "Campania", "city": "A"}, "geometry": {"type": "Point", "coordinates": [15.06324, 40.83917]}}, {"type": "Feature", "properties": {"name": "BAGNOLO MELLA", "id": "S01901", "region_code": 1, "region": "Lombardia", "city": "A"}, "geometry": {"type": "Point", "coordinates": [10.183617, 45.428532]}}, {"type": "Feature", "properties": {"name": "BAIANO DI SPOLETO", "id": "S07224", "region_code": 6, "region": "Umbria", "city": "A"}, "geometry": {"type": "Point", "coordinates": [12.663615, 42.726238]}}, {"type": "Feature", "properties": {"name": "BALDICHIERI", "id": "S00460", "region_code": 3, "region": "Piemonte", "city": "A"}, "geometry": {"type": "Point", "coordinates": [8.091198, 44.899204]}}, {"type": "Feature", "properties": {"name": "BALESTRATE", "id": "S12122", "region_code": 14, "region": "Sicilia", "city": "A"}, "geometry": {"type": "Point", "coordinates": [13.007374, 38.053364]}}, {"type": "Feature", "properties": {"name": "BALSORANO", "id": "S08856", "region_code": 19, "region": "Abruzzo", "city": "Balsorano"}, "geometry": {"type": "Point", "coordinates": [13.556546, 41.809427]}}, {"type": "Feature", "properties": {"name": "BALVANO R.", "id": "S09830", "region_code": 15, "region": "Basilicata", "city": "A"}, "geometry": {"type": "Point", "coordinates": [15.495304, 40.649993]}}, {"type": "Feature", "properties": {"name": "BALZOLA", "id": "S00178", "region_code": 3, "region": "Piemonte", "city": "A"}, "geometry": {"type": "Point", "coordinates": [8.402174, 45.173985]}}, {"type": "Feature", "properties": {"name": "BANDITO", "id": "S00732", "region_code": 3, "region": "Piemonte", "city": "A"}, "geometry": {"type": "Point", "coordinates": [7.819452, 44.722075]}}, {"type": "Feature", "properties": {"name": "BARAGIANO", "id": "S09832", "region_code": 15, "region": "Basilicata", "city": "A"}, "geometry": {"type": "Point", "coordinates": [15.569206, 40.695213]}}, {"type": "Feature", "properties": {"name": "BARANELLO", "id": "S09458", "region_code": 7, "region": "Molise", "city": "A"}, "geometry": {"type": "Point", "coordinates": [14.596314, 41.5176]}}, {"type": "Feature", "properties": {"name": "BARBIANELLO", "id": "S01932", "region_code": 1, "region": "Lombardia", "city": "A"}, "geometry": {"type": "Point", "coordinates": [9.204165, 45.07263]}}, {"type": "Feature", "properties": {"name": "BARBIANO", "id": "S05905", "region_code": 8, "region": "Emilia Romagna", "city": "A"}, "geometry": {"type": "Point", "coordinates": [11.878086, 44.387263]}}, {"type": "Feature", "properties": {"name": "BARBUSI", "id": "S12971", "region_code": 20, "region": "Sardegna", "city": "A"}, "geometry": {"type": "Point", "coordinates": [8.501702, 39.203024]}}, {"type": "Feature", "properties": {"name": "BARCELLONA", "id": "S12041", "region_code": 14, "region": "Sicilia", "city": "A"}, "geometry": {"type": "Point", "coordinates": [15.212499, 38.14918]}}, {"type": "Feature", "properties": {"name": "BARDONECCHIA", "id": "S00202", "region_code": 3, "region": "Piemonte", "city": "Bardonecchia"}, "geometry": {"type": "Point", "coordinates": [6.709959, 45.076447]}}, {"type": "Feature", "properties": {"name": "BARGA GALLICANO", "id": "S06303", "region_code": 13, "region": "Toscana", "city": "A"}, "geometry": {"type": "Point", "coordinates": [10.451938, 44.068114]}}, {"type": "Feature", "properties": {"name": "BARI CENTRALE", "id": "S11119", "region_code": 16, "region": "Puglia", "city": "Bari"}, "geometry": {"type": "Point", "coordinates": [16.869601, 41.11774]}}, {"type": "Feature", "properties": {"name": "BARI PALESE MACCHIE", "id": "S11118", "region_code": 16, "region": "Puglia", "city": "A"}, "geometry": {"type": "Point", "coordinates": [16.766902, 41.151583]}}, {"type": "Feature", "properties": {"name": "BARI PARCO NORD", "id": "S11148", "region_code": 16, "region": "Puglia", "city": "A"}, "geometry": {"type": "Point", "coordinates": [16.837018, 41.123916]}}, {"type": "Feature", "properties": {"name": "BARI PARCO SUD", "id": "S11125", "region_code": 16, "region": "Puglia", "city": "A"}, "geometry": {"type": "Point", "coordinates": [16.914736, 41.111822]}}, {"type": "Feature", "properties": {"name": "BARI S. SPIRITO", "id": "S11116", "region_code": 16, "region": "Puglia", "city": "A"}, "geometry": {"type": "Point", "coordinates": [16.746324, 41.159653]}}, {"type": "Feature", "properties": {"name": "BARI S.ANDREA", "id": "S11513", "region_code": 16, "region": "Puglia", "city": "A"}, "geometry": {"type": "Point", "coordinates": [16.830255, 41.105467]}}, {"type": "Feature", "properties": {"name": "BARI S.GIORGIO", "id": "S11150", "region_code": 16, "region": "Puglia", "city": "A"}, "geometry": {"type": "Point", "coordinates": [16.950084, 41.093779]}}, {"type": "Feature", "properties": {"name": "BARI TORRE A MARE", "id": "S11126", "region_code": 16, "region": "Puglia", "city": "A"}, "geometry": {"type": "Point", "coordinates": [16.995772, 41.082637]}}, {"type": "Feature", "properties": {"name": "BARICETTA", "id": "S05419", "region_code": 12, "region": "Veneto", "city": "A"}, "geometry": {"type": "Point", "coordinates": [11.995348, 45.060889]}}, {"type": "Feature", "properties": {"name": "BARILE", "id": "S11208", "region_code": 15, "region": "Basilicata", "city": "A"}, "geometry": {"type": "Point", "coordinates": [15.670959, 40.943044]}}, {"type": "Feature", "properties": {"name": "BARLETTA", "id": "S11108", "region_code": 16, "region": "Puglia", "city": "Barletta"}, "geometry": {"type": "Point", "coordinates": [16.278867, 41.315227]}}, {"type": "Feature", "properties": {"name": "BARONISSI", "id": "S09520", "region_code": 18, "region": "Campania", "city": "A"}, "geometry": {"type": "Point", "coordinates": [14.77224, 40.743779]}}, {"type": "Feature", "properties": {"name": "BASCHI-MONTECCHIO", "id": "S08204", "region_code": 6, "region": "Umbria", "city": "Baschi"}, "geometry": {"type": "Point", "coordinates": [12.203496, 42.68685]}}, {"type": "Feature", "properties": {"name": "BASILIANO", "id": "S02832", "region_code": 10, "region": "Friuli-Venezia Giulia", "city": "A"}, "geometry": {"type": "Point", "coordinates": [13.109233, 46.012737]}}, {"type": "Feature", "properties": {"name": "BASSANO DEL GRAPPA", "id": "S02520", "region_code": 12, "region": "Veneto", "city": "Bassano del Gr."}, "geometry": {"type": "Point", "coordinates": [11.741525, 45.766697]}}, {"type": "Feature", "properties": {"name": "BASSANO IN TEVERINA", "id": "S08208", "region_code": 6, "region": "Umbria", "city": "Bassano"}, "geometry": {"type": "Point", "coordinates": [12.333556, 42.483551]}}, {"type": "Feature", "properties": {"name": "BASSANO ROMANO", "id": "S08312", "region_code": 5, "region": "Lazio", "city": "A"}, "geometry": {"type": "Point", "coordinates": [12.152302, 42.212444]}}, {"type": "Feature", "properties": {"name": "BASTIA", "id": "S07007", "region_code": 6, "region": "Umbria", "city": "A"}, "geometry": {"type": "Point", "coordinates": [12.547735, 43.07133]}}, {"type": "Feature", "properties": {"name": "BASTIA MONDOVI`", "id": "S00908", "region_code": 3, "region": "Piemonte", "city": "A"}, "geometry": {"type": "Point", "coordinates": [7.891671, 44.439398]}}, {"type": "Feature", "properties": {"name": "BATTAGLIA TERME", "id": "S05702", "region_code": 12, "region": "Veneto", "city": "A"}, "geometry": {"type": "Point", "coordinates": [11.77838, 45.291475]}}, {"type": "Feature", "properties": {"name": "BATTIPAGLIA", "id": "S09823", "region_code": 18, "region": "Campania", "city": "Battipaglia"}, "geometry": {"type": "Point", "coordinates": [14.98324, 40.605789]}}, {"type": "Feature", "properties": {"name": "BAULADU MILIS", "id": "S12875", "region_code": 20, "region": "Sardegna", "city": "A"}, "geometry": {"type": "Point", "coordinates": [8.687123, 40.020722]}}, {"type": "Feature", "properties": {"name": "BAVENO", "id": "S01015", "region_code": 3, "region": "Piemonte", "city": "A"}, "geometry": {"type": "Point", "coordinates": [8.502121, 45.909105]}}, {"type": "Feature", "properties": {"name": "BAZZANA", "id": "S00807", "region_code": 3, "region": "Piemonte", "city": "A"}, "geometry": {"type": "Point", "coordinates": [8.401557, 44.777094]}}, {"type": "Feature", "properties": {"name": "BEAULARD", "id": "S00203", "region_code": 3, "region": "Piemonte", "city": "A"}, "geometry": {"type": "Point", "coordinates": [6.759713, 45.046495]}}, {"type": "Feature", "properties": {"name": "BEFFI", "id": "S07422", "region_code": 19, "region": "Abruzzo", "city": "A"}, "geometry": {"type": "Point", "coordinates": [13.660759, 42.197341]}}, {"type": "Feature", "properties": {"name": "BEINETTE", "id": "S00901", "region_code": 3, "region": "Piemonte", "city": "A"}, "geometry": {"type": "Point", "coordinates": [7.644884, 44.36782]}}, {"type": "Feature", "properties": {"name": "BELGIOIOSO", "id": "S01864", "region_code": 1, "region": "Lombardia", "city": "A"}, "geometry": {"type": "Point", "coordinates": [9.316875, 45.16456]}}, {"type": "Feature", "properties": {"name": "BELGIRATE", "id": "S01017", "region_code": 3, "region": "Piemonte", "city": "A"}, "geometry": {"type": "Point", "coordinates": [8.570821, 45.843337]}}, {"type": "Feature", "properties": {"name": "BELLA MURO", "id": "S09831", "region_code": 15, "region": "Basilicata", "city": "A"}, "geometry": {"type": "Point", "coordinates": [15.542936, 40.700914]}}, {"type": "Feature", "properties": {"name": "BELLANO TARTAVELLE TERME", "id": "S01409", "region_code": 1, "region": "Lombardia", "city": "A"}, "geometry": {"type": "Point", "coordinates": [9.302776, 46.039448]}}, {"type": "Feature", "properties": {"name": "BELLANTE RIPATTONE", "id": "S07902", "region_code": 19, "region": "Abruzzo", "city": "A"}, "geometry": {"type": "Point", "coordinates": [13.837978, 42.705775]}}, {"type": "Feature", "properties": {"name": "BELLARIA", "id": "S05817", "region_code": 8, "region": "Emilia Romagna", "city": "A"}, "geometry": {"type": "Point", "coordinates": [12.461168, 44.150249]}}, {"type": "Feature", "properties": {"name": "BELLAVISTA", "id": "S11512", "region_code": 16, "region": "Puglia", "city": "A"}, "geometry": {"type": "Point", "coordinates": [17.176892, 40.517077]}}, {"type": "Feature", "properties": {"name": "BELLINZAGO", "id": "S00985", "region_code": 3, "region": "Piemonte", "city": "A"}, "geometry": {"type": "Point", "coordinates": [8.627652, 45.566681]}}, {"type": "Feature", "properties": {"name": "BELLISIO SOLFARE", "id": "S07061", "region_code": 11, "region": "Marche", "city": "A"}, "geometry": {"type": "Point", "coordinates": [12.823977, 43.520379]}}, {"type": "Feature", "properties": {"name": "BELLUNO", "id": "S02559", "region_code": 12, "region": "Veneto", "city": "Belluno"}, "geometry": {"type": "Point", "coordinates": [12.209703, 46.141594]}}, {"type": "Feature", "properties": {"name": "BELMONTE CALABRO", "id": "S11743", "region_code": 17, "region": "Calabria", "city": "A"}, "geometry": {"type": "Point", "coordinates": [16.064515, 39.164427]}}, {"type": "Feature", "properties": {"name": "BELVEDERE MARITTIMO", "id": "S11732", "region_code": 17, "region": "Calabria", "city": "A"}, "geometry": {"type": "Point", "coordinates": [15.853039, 39.616549]}}, {"type": "Feature", "properties": {"name": "BENEVENTO", "id": "S09311", "region_code": 18, "region": "Campania", "city": "Benevento"}, "geometry": {"type": "Point", "coordinates": [14.769998, 41.141901]}}, {"type": "Feature", "properties": {"name": "BENEVENTO ARCO TRAIANO", "id": "S09530", "region_code": 18, "region": "Campania", "city": "A"}, "geometry": {"type": "Point", "coordinates": [14.777662, 41.136834]}}, {"type": "Feature", "properties": {"name": "BENEVENTO PORTA RUFINA", "id": "S09509", "region_code": 18, "region": "Campania", "city": "A"}, "geometry": {"type": "Point", "coordinates": [14.784315, 41.123564]}}, {"type": "Feature", "properties": {"name": "BERCETO", "id": "S06158", "region_code": 8, "region": "Emilia Romagna", "city": "A"}, "geometry": {"type": "Point", "coordinates": [9.931759, 44.555912]}}, {"type": "Feature", "properties": {"name": "BERCHIDDA", "id": "S12859", "region_code": 20, "region": "Sardegna", "city": "A"}, "geometry": {"type": "Point", "coordinates": [9.181312, 40.772052]}}, {"type": "Feature", "properties": {"name": "BERGAMASCO", "id": "S00838", "region_code": 3, "region": "Piemonte", "city": "A"}, "geometry": {"type": "Point", "coordinates": [8.461447, 44.819891]}}, {"type": "Feature", "properties": {"name": "BERGAMO", "id": "S01529", "region_code": 1, "region": "Lombardia", "city": "Bergamo"}, "geometry": {"type": "Point", "coordinates": [9.675082, 45.690271]}}, {"type": "Feature", "properties": {"name": "BERNALDA", "id": "S11460", "region_code": 15, "region": "Basilicata", "city": "A"}, "geometry": {"type": "Point", "coordinates": [16.682281, 40.397616]}}, {"type": "Feature", "properties": {"name": "BESANA", "id": "S01488", "region_code": 1, "region": "Lombardia", "city": "A"}, "geometry": {"type": "Point", "coordinates": [9.28288, 45.702824]}}, {"type": "Feature", "properties": {"name": "BESNATE", "id": "S01145", "region_code": 1, "region": "Lombardia", "city": "A"}, "geometry": {"type": "Point", "coordinates": [8.761072, 45.695409]}}, {"type": "Feature", "properties": {"name": "BESOZZO", "id": "S01141", "region_code": 1, "region": "Lombardia", "city": "A"}, "geometry": {"type": "Point", "coordinates": [8.662997, 45.842188]}}, {"type": "Feature", "properties": {"name": "BEURA CARDEZZA", "id": "S01007", "region_code": 3, "region": "Piemonte", "city": "A"}, "geometry": {"type": "Point", "coordinates": [8.289627, 46.068341]}}, {"type": "Feature", "properties": {"name": "BEVERA", "id": "S04482", "region_code": 2, "region": "Liguria", "city": "A"}, "geometry": {"type": "Point", "coordinates": [7.579157, 43.825303]}}, {"type": "Feature", "properties": {"name": "BEVILACQUA", "id": "S02391", "region_code": 12, "region": "Veneto", "city": "A"}, "geometry": {"type": "Point", "coordinates": [11.398643, 45.230145]}}, {"type": "Feature", "properties": {"name": "BIAGIONI LAGACCI", "id": "S05119", "region_code": 8, "region": "Emilia Romagna", "city": "A"}, "geometry": {"type": "Point", "coordinates": [10.948257, 44.086359]}}, {"type": "Feature", "properties": {"name": "BIANCO", "id": "S11855", "region_code": 17, "region": "Calabria", "city": "A"}, "geometry": {"type": "Point", "coordinates": [16.153348, 38.089072]}}, {"type": "Feature", "properties": {"name": "BIANZE`", "id": "S00238", "region_code": 3, "region": "Piemonte", "city": "A"}, "geometry": {"type": "Point", "coordinates": [8.115523, 45.309488]}}, {"type": "Feature", "properties": {"name": "BIANZONE", "id": "S01438", "region_code": 1, "region": "Lombardia", "city": "A"}, "geometry": {"type": "Point", "coordinates": [10.112507, 46.179383]}}, {"type": "Feature", "properties": {"name": "BIASSONO-LESMO PARCO", "id": "S01483", "region_code": 1, "region": "Lombardia", "city": "A"}, "geometry": {"type": "Point", "coordinates": [9.298408, 45.632209]}}, {"type": "Feature", "properties": {"name": "BIBIANA", "id": "S00522", "region_code": 3, "region": "Piemonte", "city": "A"}, "geometry": {"type": "Point", "coordinates": [7.285727, 44.809941]}}, {"type": "Feature", "properties": {"name": "BICOCCA", "id": "S12338", "region_code": 14, "region": "Sicilia", "city": "Bicocca"}, "geometry": {"type": "Point", "coordinates": [15.044594, 37.460617]}}, {"type": "Feature", "properties": {"name": "BIELLA CHIAVAZZA", "id": "S00970", "region_code": 3, "region": "Piemonte", "city": "A"}, "geometry": {"type": "Point", "coordinates": [8.066787, 45.568084]}}, {"type": "Feature", "properties": {"name": "BIELLA S.PAOLO", "id": "S00070", "region_code": 3, "region": "Piemonte", "city": "Biella"}, "geometry": {"type": "Point", "coordinates": [8.067541, 45.557334]}}, {"type": "Feature", "properties": {"name": "BIFORCO", "id": "S06611", "region_code": 13, "region": "Toscana", "city": "A"}, "geometry": {"type": "Point", "coordinates": [11.602243, 44.068431]}}, {"type": "Feature", "properties": {"name": "BINARIO S.MARCO VECCHIO", "id": "S06950", "region_code": 13, "region": "Toscana", "city": "A"}, "geometry": {"type": "Point", "coordinates": [11.267403, 43.790336]}}, {"type": "Feature", "properties": {"name": "BISCEGLIE", "id": "S11113", "region_code": 16, "region": "Puglia", "city": "A"}, "geometry": {"type": "Point", "coordinates": [16.499484, 41.235445]}}, {"type": "Feature", "properties": {"name": "BISTAGNO", "id": "S00870", "region_code": 3, "region": "Piemonte", "city": "A"}, "geometry": {"type": "Point", "coordinates": [8.372057, 44.659256]}}, {"type": "Feature", "properties": {"name": "BISUSCHIO VIGGIU", "id": "S01202", "region_code": 1, "region": "Lombardia", "city": "A"}, "geometry": {"type": "Point", "coordinates": [8.887544, 45.870658]}}, {"type": "Feature", "properties": {"name": "BITETTO PALO DEL COLLE", "id": "S11501", "region_code": 16, "region": "Puglia", "city": "A"}, "geometry": {"type": "Point", "coordinates": [16.74053, 41.041481]}}, {"type": "Feature", "properties": {"name": "BIVIO D`AURISINA", "id": "S03313", "region_code": 10, "region": "Friuli-Venezia Giulia", "city": "Bivio d`Aurisina"}, "geometry": {"type": "Point", "coordinates": [13.655777, 45.754253]}}, {"type": "Feature", "properties": {"name": "BOCCIA AL MAURO", "id": "S09763", "region_code": 18, "region": "Campania", "city": "A"}, "geometry": {"type": "Point", "coordinates": [14.471878, 40.732794]}}, {"type": "Feature", "properties": {"name": "BOGLIASCO", "id": "S04709", "region_code": 2, "region": "Liguria", "city": "A"}, "geometry": {"type": "Point", "coordinates": [9.066042, 44.379207]}}, {"type": "Feature", "properties": {"name": "BOIANO", "id": "S09453", "region_code": 7, "region": "Molise", "city": "A"}, "geometry": {"type": "Point", "coordinates": [14.474551, 41.487883]}}, {"type": "Feature", "properties": {"name": "BOLGHERI", "id": "S06028", "region_code": 13, "region": "Toscana", "city": "A"}, "geometry": {"type": "Point", "coordinates": [10.550548, 43.244664]}}, {"type": "Feature", "properties": {"name": "BOLOGNA BORGO PANIGALE", "id": "S05100", "region_code": 8, "region": "Emilia Romagna", "city": "A"}, "geometry": {"type": "Point", "coordinates": [11.284728, 44.515024]}}, {"type": "Feature", "properties": {"name": "BOLOGNA C.LE", "id": "S05043", "region_code": 8, "region": "Emilia Romagna", "city": "Bologna"}, "geometry": {"type": "Point", "coordinates": [11.342267, 44.50626]}}, {"type": "Feature", "properties": {"name": "BOLOGNA C.LE/AV", "id": "S05046", "region_code": 8, "region": "Emilia Romagna", "city": "A"}, "geometry": {"type": "Point", "coordinates": [11.342267, 44.50626]}}, {"type": "Feature", "properties": {"name": "BOLOGNA CORTICELLA", "id": "S05725", "region_code": 8, "region": "Emilia Romagna", "city": "A"}, "geometry": {"type": "Point", "coordinates": [11.35401, 44.551985]}}, {"type": "Feature", "properties": {"name": "BOLOGNA FIERE", "id": "S05020", "region_code": 8, "region": "Emilia Romagna", "city": "A"}, "geometry": {"type": "Point", "coordinates": [11.368809, 44.512742]}}, {"type": "Feature", "properties": {"name": "BOLOGNA MAZZINI", "id": "S05140", "region_code": 8, "region": "Emilia Romagna", "city": "A"}, "geometry": {"type": "Point", "coordinates": [11.376271, 44.482284]}}, {"type": "Feature", "properties": {"name": "BOLOGNA RAVONE", "id": "S05042", "region_code": 8, "region": "Emilia Romagna", "city": "A"}, "geometry": {"type": "Point", "coordinates": [11.320029, 44.510244]}}, {"type": "Feature", "properties": {"name": "BOLOGNA S.RUFFILLO", "id": "S05130", "region_code": 8, "region": "Emilia Romagna", "city": "A"}, "geometry": {"type": "Point", "coordinates": [11.372967, 44.462657]}}, {"type": "Feature", "properties": {"name": "BOLZANO ", "id": "S02026", "region_code": 22, "region": "Trentino Alto Adige", "city": "Bolzano "}, "geometry": {"type": "Point", "coordinates": [11.358556, 46.496346]}}, {"type": "Feature", "properties": {"name": "BOLZANO NOVARESE", "id": "S00014", "region_code": 3, "region": "Piemonte", "city": "A"}, "geometry": {"type": "Point", "coordinates": [8.440754, 45.759357]}}, {"type": "Feature", "properties": {"name": "BOLZANO SUD ", "id": "S02226", "region_code": 9, "region": "N/A", "city": "A"}, "geometry": {"type": "Point", "coordinates": [11.33334, 46.472617]}}, {"type": "Feature", "properties": {"name": "BONASSOLA", "id": "S04730", "region_code": 2, "region": "Liguria", "city": "A"}, "geometry": {"type": "Point", "coordinates": [9.582673, 44.184867]}}, {"type": "Feature", "properties": {"name": "BONEFRO S.CROCE", "id": "S09464", "region_code": 7, "region": "Molise", "city": "A"}, "geometry": {"type": "Point", "coordinates": [14.860799, 41.710522]}}, {"type": "Feature", "properties": {"name": "BONFERRARO", "id": "S02383", "region_code": 12, "region": "Veneto", "city": "A"}, "geometry": {"type": "Point", "coordinates": [11.009247, 45.185651]}}, {"type": "Feature", "properties": {"name": "BONORVA", "id": "S12867", "region_code": 20, "region": "Sardegna", "city": "A"}, "geometry": {"type": "Point", "coordinates": [8.760707, 40.417763]}}, {"type": "Feature", "properties": {"name": "BORDIGHERA", "id": "S04503", "region_code": 2, "region": "Liguria", "city": "A"}, "geometry": {"type": "Point", "coordinates": [7.663504, 43.778313]}}, {"type": "Feature", "properties": {"name": "BORGHETTO", "id": "S02051", "region_code": 9, "region": "N/A", "city": "A"}, "geometry": {"type": "Point", "coordinates": [10.927083, 45.696721]}}, {"type": "Feature", "properties": {"name": "BORGHETTO PARMENSE", "id": "S06100", "region_code": 8, "region": "Emilia Romagna", "city": "A"}, "geometry": {"type": "Point", "coordinates": [10.1177, 44.837198]}}, {"type": "Feature", "properties": {"name": "BORGHETTO SANTO SPIRITO", "id": "S04518", "region_code": 2, "region": "Liguria", "city": "A"}, "geometry": {"type": "Point", "coordinates": [8.242346, 44.109006]}}, {"type": "Feature", "properties": {"name": "BORGIO VEREZZI", "id": "S04521", "region_code": 2, "region": "Liguria", "city": "A"}, "geometry": {"type": "Point", "coordinates": [8.30908, 44.157722]}}, {"type": "Feature", "properties": {"name": "BORGO", "id": "S09526", "region_code": 18, "region": "Campania", "city": "A"}, "geometry": {"type": "Point", "coordinates": [14.784092, 40.845976]}}, {"type": "Feature", "properties": {"name": "BORGO A BUGGIANO", "id": "S06410", "region_code": 13, "region": "Toscana", "city": "A"}, "geometry": {"type": "Point", "coordinates": [10.730079, 43.880724]}}, {"type": "Feature", "properties": {"name": "BORGO A MOZZANO", "id": "S06309", "region_code": 13, "region": "Toscana", "city": "A"}, "geometry": {"type": "Point", "coordinates": [10.541285, 43.977207]}}, {"type": "Feature", "properties": {"name": "BORGO FORNARI PER VOLTAGGIO", "id": "S04214", "region_code": 2, "region": "Liguria", "city": "A"}, "geometry": {"type": "Point", "coordinates": [8.938295, 44.588379]}}, {"type": "Feature", "properties": {"name": "BORGO LAVEZZARO", "id": "S00032", "region_code": 3, "region": "Piemonte", "city": "A"}, "geometry": {"type": "Point", "coordinates": [8.703242, 45.318783]}}, {"type": "Feature", "properties": {"name": "BORGO REVEL", "id": "S00171", "region_code": 3, "region": "Piemonte", "city": "A"}, "geometry": {"type": "Point", "coordinates": [8.02021, 45.189827]}}, {"type": "Feature", "properties": {"name": "BORGO S. LORENZO", "id": "S06604", "region_code": 13, "region": "Toscana", "city": "Borgo S. L."}, "geometry": {"type": "Point", "coordinates": [11.380422, 43.959822]}}, {"type": "Feature", "properties": {"name": "BORGO S.L.RIMORELLI", "id": "S06704", "region_code": 13, "region": "Toscana", "city": "A"}, "geometry": {"type": "Point", "coordinates": [11.400076, 43.953279]}}, {"type": "Feature", "properties": {"name": "BORGO S.MARTINO", "id": "S00315", "region_code": 3, "region": "Piemonte", "city": "A"}, "geometry": {"type": "Point", "coordinates": [8.520661, 45.087083]}}, {"type": "Feature", "properties": {"name": "BORGO SAN DALMAZZO", "id": "S00613", "region_code": 3, "region": "Piemonte", "city": "A"}, "geometry": {"type": "Point", "coordinates": [7.486111, 44.326249]}}, {"type": "Feature", "properties": {"name": "BORGO TICINO", "id": "S00981", "region_code": 3, "region": "Piemonte", "city": "A"}, "geometry": {"type": "Point", "coordinates": [8.602483, 45.691943]}}, {"type": "Feature", "properties": {"name": "BORGO VAL DI TARO", "id": "S06161", "region_code": 8, "region": "Emilia Romagna", "city": "Borgo Val di Taro"}, "geometry": {"type": "Point", "coordinates": [9.781489, 44.486522]}}, {"type": "Feature", "properties": {"name": "BORGO VALSUGANA CENTRO", "id": "S02313", "region_code": 21, "region": "N/A", "city": "Borgo Valsugana"}, "geometry": {"type": "Point", "coordinates": [11.453967, 46.051182]}}, {"type": "Feature", "properties": {"name": "BORGO VALSUGANA EST", "id": "S02314", "region_code": 9, "region": "N/A", "city": "A"}, "geometry": {"type": "Point", "coordinates": [11.462119, 46.05224]}}, {"type": "Feature", "properties": {"name": "BORGO VERCELLI", "id": "S00246", "region_code": 3, "region": "Piemonte", "city": "A"}, "geometry": {"type": "Point", "coordinates": [8.461474, 45.359252]}}, {"type": "Feature", "properties": {"name": "BORGOFORTE", "id": "S02338", "region_code": 1, "region": "Lombardia", "city": "A"}, "geometry": {"type": "Point", "coordinates": [10.752388, 45.050328]}}, {"type": "Feature", "properties": {"name": "BORGOFRANCO", "id": "S00152", "region_code": 3, "region": "Piemonte", "city": "A"}, "geometry": {"type": "Point", "coordinates": [7.854612, 45.514775]}}, {"type": "Feature", "properties": {"name": "BORGOLOMBARDO", "id": "S01830", "region_code": 1, "region": "Lombardia", "city": "A"}, "geometry": {"type": "Point", "coordinates": [9.27111, 45.403856]}}, {"type": "Feature", "properties": {"name": "BORGOMANERO", "id": "S00016", "region_code": 3, "region": "Piemonte", "city": "Borgomanero"}, "geometry": {"type": "Point", "coordinates": [8.468093, 45.701054]}}, {"type": "Feature", "properties": {"name": "BORGONE", "id": "S00210", "region_code": 3, "region": "Piemonte", "city": "A"}, "geometry": {"type": "Point", "coordinates": [7.236037, 45.123191]}}, {"type": "Feature", "properties": {"name": "BORGORATTO", "id": "S00860", "region_code": 3, "region": "Piemonte", "city": "A"}, "geometry": {"type": "Point", "coordinates": [8.538182, 44.835999]}}, {"type": "Feature", "properties": {"name": "BORGOSESIA", "id": "S00104", "region_code": 3, "region": "Piemonte", "city": "A"}, "geometry": {"type": "Point", "coordinates": [8.28239, 45.716798]}}, {"type": "Feature", "properties": {"name": "BORORE", "id": "S12872", "region_code": 20, "region": "Sardegna", "city": "A"}, "geometry": {"type": "Point", "coordinates": [8.809535, 40.218992]}}, {"type": "Feature", "properties": {"name": "BOSCHI S.ANNA", "id": "S02390", "region_code": 12, "region": "Veneto", "city": "A"}, "geometry": {"type": "Point", "coordinates": [11.362302, 45.217328]}}, {"type": "Feature", "properties": {"name": "BOSCO REDOLE", "id": "S09452", "region_code": 7, "region": "Molise", "city": "Bosco Redole"}, "geometry": {"type": "Point", "coordinates": [14.587884, 41.459299]}}, {"type": "Feature", "properties": {"name": "BOSCOREALE", "id": "S09754", "region_code": 18, "region": "Campania", "city": "A"}, "geometry": {"type": "Point", "coordinates": [14.48017, 40.770786]}}, {"type": "Feature", "properties": {"name": "BOTRICELLO", "id": "S11829", "region_code": 17, "region": "Calabria", "city": "A"}, "geometry": {"type": "Point", "coordinates": [16.857433, 38.933943]}}, {"type": "Feature", "properties": {"name": "BOVA MARINA", "id": "S11860", "region_code": 17, "region": "Calabria", "city": "A"}, "geometry": {"type": "Point", "coordinates": [15.923897, 37.930269]}}, {"type": "Feature", "properties": {"name": "BOVALINO", "id": "S11854", "region_code": 17, "region": "Calabria", "city": "A"}, "geometry": {"type": "Point", "coordinates": [16.180584, 38.149087]}}, {"type": "Feature", "properties": {"name": "BOVINO DELICETO", "id": "S09321", "region_code": 16, "region": "Puglia", "city": "A"}, "geometry": {"type": "Point", "coordinates": [15.369255, 41.27835]}}, {"type": "Feature", "properties": {"name": "BOVOLONE", "id": "S02363", "region_code": 12, "region": "Veneto", "city": "A"}, "geometry": {"type": "Point", "coordinates": [11.123862, 45.254446]}}, {"type": "Feature", "properties": {"name": "BOZZOLO", "id": "S01920", "region_code": 1, "region": "Lombardia", "city": "A"}, "geometry": {"type": "Point", "coordinates": [10.472655, 45.107246]}}, {"type": "Feature", "properties": {"name": "BRA", "id": "S00821", "region_code": 3, "region": "Piemonte", "city": "Bra"}, "geometry": {"type": "Point", "coordinates": [7.848643, 44.693556]}}, {"type": "Feature", "properties": {"name": "BRACCIANO", "id": "S08315", "region_code": 5, "region": "Lazio", "city": "A"}, "geometry": {"type": "Point", "coordinates": [12.173023, 42.103667]}}, {"type": "Feature", "properties": {"name": "BRAGNO", "id": "S04803", "region_code": 2, "region": "Liguria", "city": "A"}, "geometry": {"type": "Point", "coordinates": [8.304473, 44.371679]}}, {"type": "Feature", "properties": {"name": "BRANCALEONE", "id": "S11857", "region_code": 17, "region": "Calabria", "city": "A"}, "geometry": {"type": "Point", "coordinates": [16.103301, 37.965475]}}, {"type": "Feature", "properties": {"name": "BRANDIZZO", "id": "S00231", "region_code": 3, "region": "Piemonte", "city": "A"}, "geometry": {"type": "Point", "coordinates": [7.841218, 45.178915]}}, {"type": "Feature", "properties": {"name": "BREIL SUR ROYA", "id": "S00622", "region_code": 3, "region": "Piemonte", "city": "Breil"}, "geometry": {"type": "Point", "coordinates": [7.530915, 43.890267]}}, {"type": "Feature", "properties": {"name": "BRENNA-ALZATE", "id": "S01452", "region_code": 1, "region": "Lombardia", "city": "A"}, "geometry": {"type": "Point", "coordinates": [9.183312, 45.754044]}}, {"type": "Feature", "properties": {"name": "BRENNERO", "id": "S02001", "region_code": 22, "region": "Trentino Alto Adige", "city": "Brennero"}, "geometry": {"type": "Point", "coordinates": [11.505711, 47.004117]}}, {"type": "Feature", "properties": {"name": "BRESCIA", "id": "S01717", "region_code": 1, "region": "Lombardia", "city": "Brescia"}, "geometry": {"type": "Point", "coordinates": [10.212828, 45.532315]}}, {"type": "Feature", "properties": {"name": "BRESSANA ARGINE", "id": "S01930", "region_code": 1, "region": "Lombardia", "city": "A"}, "geometry": {"type": "Point", "coordinates": [9.137038, 45.072739]}}, {"type": "Feature", "properties": {"name": "BRESSANA BOTTARONE", "id": "S01805", "region_code": 1, "region": "Lombardia", "city": "Bressana B."}, "geometry": {"type": "Point", "coordinates": [9.110602, 45.086298]}}, {"type": "Feature", "properties": {"name": "BRESSANONE", "id": "S02014", "region_code": 9, "region": "N/A", "city": "A"}, "geometry": {"type": "Point", "coordinates": [11.649677, 46.710088]}}, {"type": "Feature", "properties": {"name": "BRIATICO", "id": "S11757", "region_code": 17, "region": "Calabria", "city": "A"}, "geometry": {"type": "Point", "coordinates": [16.025765, 38.725447]}}, {"type": "Feature", "properties": {"name": "BRICHERASIO", "id": "S00521", "region_code": 3, "region": "Piemonte", "city": "A"}, "geometry": {"type": "Point", "coordinates": [7.307513, 44.824336]}}, {"type": "Feature", "properties": {"name": "BRINDISI", "id": "S11136", "region_code": 16, "region": "Puglia", "city": "Brindisi"}, "geometry": {"type": "Point", "coordinates": [17.938978, 40.634339]}}, {"type": "Feature", "properties": {"name": "BRINDISI DI MONTAGNA", "id": "S11451", "region_code": 15, "region": "Basilicata", "city": "A"}, "geometry": {"type": "Point", "coordinates": [15.955795, 40.611991]}}, {"type": "Feature", "properties": {"name": "BRINDISI MARITTIMA", "id": "S11137", "region_code": 16, "region": "Puglia", "city": "Brindisi Marittima"}, "geometry": {"type": "Point", "coordinates": [17.94863, 40.633543]}}, {"type": "Feature", "properties": {"name": "BRIONA", "id": "S00113", "region_code": 3, "region": "Piemonte", "city": "A"}, "geometry": {"type": "Point", "coordinates": [8.479541, 45.538568]}}, {"type": "Feature", "properties": {"name": "BRISIGHELLA", "id": "S06614", "region_code": 8, "region": "Emilia Romagna", "city": "A"}, "geometry": {"type": "Point", "coordinates": [11.769757, 44.220565]}}, {"type": "Feature", "properties": {"name": "BROLO FICARRA", "id": "S12031", "region_code": 14, "region": "Sicilia", "city": "A"}, "geometry": {"type": "Point", "coordinates": [14.830176, 38.159204]}}, {"type": "Feature", "properties": {"name": "BRONI", "id": "S01944", "region_code": 1, "region": "Lombardia", "city": "Broni"}, "geometry": {"type": "Point", "coordinates": [9.258751, 45.066263]}}, {"type": "Feature", "properties": {"name": "BRONZOLO ", "id": "S02030", "region_code": 9, "region": "N/A", "city": "A"}, "geometry": {"type": "Point", "coordinates": [11.315833, 46.40505]}}, {"type": "Feature", "properties": {"name": "BROZOLO", "id": "S00424", "region_code": 3, "region": "Piemonte", "city": "A"}, "geometry": {"type": "Point", "coordinates": [8.05893, 45.121299]}}, {"type": "Feature", "properties": {"name": "BRUNICO ", "id": "S02107", "region_code": 9, "region": "N/A", "city": "A"}, "geometry": {"type": "Point", "coordinates": [11.929989, 46.794922]}}, {"type": "Feature", "properties": {"name": "BRUNO", "id": "S00837", "region_code": 3, "region": "Piemonte", "city": "A"}, "geometry": {"type": "Point", "coordinates": [8.439639, 44.797947]}}, {"type": "Feature", "properties": {"name": "BRUZOLO", "id": "S00209", "region_code": 3, "region": "Piemonte", "city": "A"}, "geometry": {"type": "Point", "coordinates": [7.201497, 45.131032]}}, {"type": "Feature", "properties": {"name": "BUCCINO S.", "id": "S09828", "region_code": 18, "region": "Campania", "city": "A"}, "geometry": {"type": "Point", "coordinates": [15.374199, 40.600806]}}, {"type": "Feature", "properties": {"name": "BUCINE", "id": "S06911", "region_code": 13, "region": "Toscana", "city": "A"}, "geometry": {"type": "Point", "coordinates": [11.617609, 43.480478]}}, {"type": "Feature", "properties": {"name": "BUDOIA POLCENIGO", "id": "S03088", "region_code": 10, "region": "Friuli-Venezia Giulia", "city": "A"}, "geometry": {"type": "Point", "coordinates": [12.537637, 46.031464]}}, {"type": "Feature", "properties": {"name": "BUGNARA", "id": "S08538", "region_code": 19, "region": "Abruzzo", "city": "A"}, "geometry": {"type": "Point", "coordinates": [13.862082, 42.031166]}}, {"type": "Feature", "properties": {"name": "BUONCONVENTO", "id": "S06874", "region_code": 13, "region": "Toscana", "city": "A"}, "geometry": {"type": "Point", "coordinates": [11.483773, 43.135503]}}, {"type": "Feature", "properties": {"name": "BUONFORNELLO", "id": "S12016", "region_code": 14, "region": "Sicilia", "city": "A"}, "geometry": {"type": "Point", "coordinates": [13.816408, 37.972052]}}, {"type": "Feature", "properties": {"name": "BURONZO", "id": "S00054", "region_code": 3, "region": "Piemonte", "city": "A"}, "geometry": {"type": "Point", "coordinates": [8.2667, 45.47179]}}, {"type": "Feature", "properties": {"name": "BUSALLA", "id": "S04215", "region_code": 2, "region": "Liguria", "city": "A"}, "geometry": {"type": "Point", "coordinates": [8.943611, 44.57558]}}, {"type": "Feature", "properties": {"name": "BUSCA", "id": "S00704", "region_code": 3, "region": "Piemonte", "city": "A"}, "geometry": {"type": "Point", "coordinates": [7.481589, 44.520585]}}, {"type": "Feature", "properties": {"name": "BUSCHE LENTIAI MEL", "id": "S02563", "region_code": 12, "region": "Veneto", "city": "A"}, "geometry": {"type": "Point", "coordinates": [11.979251, 46.040092]}}, {"type": "Feature", "properties": {"name": "BUSSETO", "id": "S01963", "region_code": 8, "region": "Emilia Romagna", "city": "A"}, "geometry": {"type": "Point", "coordinates": [10.038909, 44.974692]}}, {"type": "Feature", "properties": {"name": "BUSSI", "id": "S07704", "region_code": 19, "region": "Abruzzo", "city": "A"}, "geometry": {"type": "Point", "coordinates": [13.849075, 42.194154]}}, {"type": "Feature", "properties": {"name": "BUSSOLENO", "id": "S00208", "region_code": 3, "region": "Piemonte", "city": "Bussoleno"}, "geometry": {"type": "Point", "coordinates": [7.144819, 45.139631]}}, {"type": "Feature", "properties": {"name": "BUSTO ARSIZIO", "id": "S01031", "region_code": 1, "region": "Lombardia", "city": "Busto Arsizio"}, "geometry": {"type": "Point", "coordinates": [8.865031, 45.616164]}}, {"type": "Feature", "properties": {"name": "BUTTAFAVA", "id": "S01482", "region_code": 1, "region": "Lombardia", "city": "A"}, "geometry": {"type": "Point", "coordinates": [9.301185, 45.62141]}}, {"type": "Feature", "properties": {"name": "BUTTAPIETRA", "id": "S05301", "region_code": 12, "region": "Veneto", "city": "A"}, "geometry": {"type": "Point", "coordinates": [10.988059, 45.338787]}}, {"type": "Feature", "properties": {"name": "BUTTRIO", "id": "S03029", "region_code": 10, "region": "Friuli-Venezia Giulia", "city": "A"}, "geometry": {"type": "Point", "coordinates": [13.329039, 46.012664]}}, {"type": "Feature", "properties": {"name": "CADEO", "id": "S05006", "region_code": 8, "region": "Emilia Romagna", "city": "A"}, "geometry": {"type": "Point", "coordinates": [9.853181, 44.967283]}}, {"type": "Feature", "properties": {"name": "CAGLIARI", "id": "S12891", "region_code": 20, "region": "Sardegna", "city": "Cagliari"}, "geometry": {"type": "Point", "coordinates": [9.107984, 39.216078]}}, {"type": "Feature", "properties": {"name": "CAGLIARI ELMAS", "id": "S12890", "region_code": 20, "region": "Sardegna", "city": "A"}, "geometry": {"type": "Point", "coordinates": [9.045497, 39.264193]}}, {"type": "Feature", "properties": {"name": "CAIRO MONTENOTTE", "id": "S00879", "region_code": 2, "region": "Liguria", "city": "A"}, "geometry": {"type": "Point", "coordinates": [8.278786, 44.394747]}}, {"type": "Feature", "properties": {"name": "CALA SABINA", "id": "S12851", "region_code": 20, "region": "Sardegna", "city": "A"}, "geometry": {"type": "Point", "coordinates": [9.5881, 41.011012]}}, {"type": "Feature", "properties": {"name": "CALALZO PIEVE CADORE CORTINA", "id": "S02550", "region_code": 12, "region": "Veneto", "city": "Calalzo PC Cort."}, "geometry": {"type": "Point", "coordinates": [12.388668, 46.443829]}}, {"type": "Feature", "properties": {"name": "CALAMANDRANA", "id": "S00833", "region_code": 3, "region": "Piemonte", "city": "A"}, "geometry": {"type": "Point", "coordinates": [8.331572, 44.738986]}}, {"type": "Feature", "properties": {"name": "CALATABIANO", "id": "S12321", "region_code": 14, "region": "Sicilia", "city": "A"}, "geometry": {"type": "Point", "coordinates": [15.226568, 37.814684]}}, {"type": "Feature", "properties": {"name": "CALATAFIMI", "id": "S12151", "region_code": 14, "region": "Sicilia", "city": "A"}, "geometry": {"type": "Point", "coordinates": [12.856156, 37.938858]}}, {"type": "Feature", "properties": {"name": "CALCERANICA", "id": "S02307", "region_code": 9, "region": "N/A", "city": "A"}, "geometry": {"type": "Point", "coordinates": [11.240713, 46.007384]}}, {"type": "Feature", "properties": {"name": "CALCIANO", "id": "S11455", "region_code": 15, "region": "Basilicata", "city": "A"}, "geometry": {"type": "Point", "coordinates": [16.202526, 40.595117]}}, {"type": "Feature", "properties": {"name": "CALCIO", "id": "S01712", "region_code": 1, "region": "Lombardia", "city": "A"}, "geometry": {"type": "Point", "coordinates": [9.841342, 45.532937]}}, {"type": "Feature", "properties": {"name": "CALDE`", "id": "S01117", "region_code": 1, "region": "Lombardia", "city": "A"}, "geometry": {"type": "Point", "coordinates": [8.663157, 45.945812]}}, {"type": "Feature", "properties": {"name": "CALDIERO", "id": "S02437", "region_code": 12, "region": "Veneto", "city": "A"}, "geometry": {"type": "Point", "coordinates": [11.169753, 45.41407]}}, {"type": "Feature", "properties": {"name": "CALDONAZZO", "id": "S02308", "region_code": 9, "region": "N/A", "city": "A"}, "geometry": {"type": "Point", "coordinates": [11.264815, 45.997575]}}, {"type": "Feature", "properties": {"name": "CALENZANO", "id": "S06417", "region_code": 13, "region": "Toscana", "city": "A"}, "geometry": {"type": "Point", "coordinates": [11.14537, 43.856429]}}, {"type": "Feature", "properties": {"name": "CALITRI PESCOPAGANO", "id": "S09620", "region_code": 18, "region": "Campania", "city": "Calitri Pescop."}, "geometry": {"type": "Point", "coordinates": [15.427962, 40.884932]}}, {"type": "Feature", "properties": {"name": "CALOLZIOCORTE OLGINATE", "id": "S01524", "region_code": 1, "region": "Lombardia", "city": "Calolziocorte"}, "geometry": {"type": "Point", "coordinates": [9.42698, 45.801619]}}, {"type": "Feature", "properties": {"name": "CALOPEZZATI", "id": "S11815", "region_code": 17, "region": "Calabria", "city": "A"}, "geometry": {"type": "Point", "coordinates": [16.819361, 39.579022]}}, {"type": "Feature", "properties": {"name": "CALTAGIRONE", "id": "S12270", "region_code": 14, "region": "Sicilia", "city": "Caltagirone"}, "geometry": {"type": "Point", "coordinates": [14.521165, 37.225276]}}, {"type": "Feature", "properties": {"name": "CALTANISSETTA CENTRALE", "id": "S12381", "region_code": 14, "region": "Sicilia", "city": "Caltanissetta C."}, "geometry": {"type": "Point", "coordinates": [14.057396, 37.48829]}}, {"type": "Feature", "properties": {"name": "CALTANISSETTA XIRBI", "id": "S12380", "region_code": 14, "region": "Sicilia", "city": "Caltanissetta X."}, "geometry": {"type": "Point", "coordinates": [14.056902, 37.536296]}}, {"type": "Feature", "properties": {"name": "CALTIGNAGA", "id": "S00020", "region_code": 3, "region": "Piemonte", "city": "A"}, "geometry": {"type": "Point", "coordinates": [8.591602, 45.519167]}}, {"type": "Feature", "properties": {"name": "CALUSCO", "id": "S01503", "region_code": 1, "region": "Lombardia", "city": "A"}, "geometry": {"type": "Point", "coordinates": [9.470646, 45.684113]}}, {"type": "Feature", "properties": {"name": "CALUSO", "id": "S00158", "region_code": 3, "region": "Piemonte", "city": "A"}, "geometry": {"type": "Point", "coordinates": [7.902568, 45.303194]}}, {"type": "Feature", "properties": {"name": "CALVISANO", "id": "S01843", "region_code": 1, "region": "Lombardia", "city": "A"}, "geometry": {"type": "Point", "coordinates": [10.349411, 45.346572]}}, {"type": "Feature", "properties": {"name": "CAMAIORE LIDO CAPEZZANO", "id": "S06043", "region_code": 13, "region": "Toscana", "city": "A"}, "geometry": {"type": "Point", "coordinates": [10.24765, 43.912176]}}, {"type": "Feature", "properties": {"name": "CAMBIANO", "id": "S06804", "region_code": 13, "region": "Toscana", "city": "A"}, "geometry": {"type": "Point", "coordinates": [10.958997, 43.631183]}}, {"type": "Feature", "properties": {"name": "CAMBIANO SANTENA", "id": "S00456", "region_code": 3, "region": "Piemonte", "city": "A"}, "geometry": {"type": "Point", "coordinates": [7.773225, 44.966491]}}, {"type": "Feature", "properties": {"name": "CAMMARATA S.GIOVANNI GEMINI", "id": "S12207", "region_code": 14, "region": "Sicilia", "city": "A"}, "geometry": {"type": "Point", "coordinates": [13.673791, 37.653759]}}, {"type": "Feature", "properties": {"name": "CAMNAGO-LENTATE", "id": "S01316", "region_code": 1, "region": "Lombardia", "city": "CM Lentate"}, "geometry": {"type": "Point", "coordinates": [9.133451, 45.668425]}}, {"type": "Feature", "properties": {"name": "CAMOGLI SAN FRUTTUOSO", "id": "S04716", "region_code": 2, "region": "Liguria", "city": "A"}, "geometry": {"type": "Point", "coordinates": [9.156743, 44.348166]}}, {"type": "Feature", "properties": {"name": "CAMPAGNA SERRE PERSANO", "id": "S09825", "region_code": 18, "region": "Campania", "city": "A"}, "geometry": {"type": "Point", "coordinates": [15.113986, 40.595667]}}, {"type": "Feature", "properties": {"name": "CAMPELLO", "id": "S07219", "region_code": 6, "region": "Umbria", "city": "A"}, "geometry": {"type": "Point", "coordinates": [12.761253, 42.822814]}}, {"type": "Feature", "properties": {"name": "CAMPIGLIA MARITTIMA", "id": "S06031", "region_code": 13, "region": "Toscana", "city": "Campiglia Maritt."}, "geometry": {"type": "Point", "coordinates": [10.586558, 43.017118]}}, {"type": "Feature", "properties": {"name": "CAMPO DI CARNE", "id": "S08706", "region_code": 5, "region": "Lazio", "city": "A"}, "geometry": {"type": "Point", "coordinates": [12.635125, 41.552116]}}, {"type": "Feature", "properties": {"name": "CAMPO DI GIOVE", "id": "S08903", "region_code": 19, "region": "Abruzzo", "city": "A"}, "geometry": {"type": "Point", "coordinates": [14.041492, 42.007967]}}, {"type": "Feature", "properties": {"name": "CAMPO DI GIOVE-MONTE MAIELLA", "id": "S08919", "region_code": 19, "region": "Abruzzo", "city": "A"}, "geometry": {"type": "Point", "coordinates": [14.069088, 41.993262]}}, {"type": "Feature", "properties": {"name": "CAMPO DI NUSCO", "id": "S09626", "region_code": 18, "region": "Campania", "city": "A"}, "geometry": {"type": "Point", "coordinates": [15.129255, 40.879143]}}, {"type": "Feature", "properties": {"name": "CAMPO DI TRENS ", "id": "S02007", "region_code": 9, "region": "N/A", "city": "A"}, "geometry": {"type": "Point", "coordinates": [11.488231, 46.869076]}}, {"type": "Feature", "properties": {"name": "CAMPOBASSO", "id": "S09459", "region_code": 7, "region": "Molise", "city": "Campobasso"}, "geometry": {"type": "Point", "coordinates": [14.66393, 41.558137]}}, {"type": "Feature", "properties": {"name": "CAMPOBELLO DI MAZARA", "id": "S12112", "region_code": 14, "region": "Sicilia", "city": "A"}, "geometry": {"type": "Point", "coordinates": [12.733165, 37.636256]}}, {"type": "Feature", "properties": {"name": "CAMPOBELLO RAVANUSA", "id": "S12385", "region_code": 14, "region": "Sicilia", "city": "A"}, "geometry": {"type": "Point", "coordinates": [13.946251, 37.265731]}}, {"type": "Feature", "properties": {"name": "CAMPODARSEGO", "id": "S02527", "region_code": 12, "region": "Veneto", "city": "A"}, "geometry": {"type": "Point", "coordinates": [11.900894, 45.505721]}}, {"type": "Feature", "properties": {"name": "CAMPOFELICE", "id": "S12017", "region_code": 14, "region": "Sicilia", "city": "A"}, "geometry": {"type": "Point", "coordinates": [13.876549, 37.992615]}}, {"type": "Feature", "properties": {"name": "CAMPOFRANCO", "id": "S12211", "region_code": 14, "region": "Sicilia", "city": "A"}, "geometry": {"type": "Point", "coordinates": [13.686777, 37.510105]}}, {"type": "Feature", "properties": {"name": "CAMPOLATTARO", "id": "S09505", "region_code": 18, "region": "Campania", "city": "A"}, "geometry": {"type": "Point", "coordinates": [14.726853, 41.285869]}}, {"type": "Feature", "properties": {"name": "CAMPOLEONE", "id": "S08602", "region_code": 5, "region": "Lazio", "city": "Campoleone"}, "geometry": {"type": "Point", "coordinates": [12.648341, 41.642396]}}, {"type": "Feature", "properties": {"name": "CAMPOLIETO MONACILIONI", "id": "S09462", "region_code": 7, "region": "Molise", "city": "A"}, "geometry": {"type": "Point", "coordinates": [14.76544, 41.642573]}}, {"type": "Feature", "properties": {"name": "CAMPOLIGURE MASONE", "id": "S04105", "region_code": 2, "region": "Liguria", "city": "Campoligure"}, "geometry": {"type": "Point", "coordinates": [8.700878, 44.530909]}}, {"type": "Feature", "properties": {"name": "CAMPOMAGGIORE", "id": "S11454", "region_code": 15, "region": "Basilicata", "city": "A"}, "geometry": {"type": "Point", "coordinates": [16.086766, 40.550772]}}, {"type": "Feature", "properties": {"name": "CAMPOMARINO", "id": "S11020", "region_code": 7, "region": "Molise", "city": "A"}, "geometry": {"type": "Point", "coordinates": [15.042416, 41.957398]}}, {"type": "Feature", "properties": {"name": "CAMPOMELA", "id": "S12815", "region_code": 20, "region": "Sardegna", "city": "A"}, "geometry": {"type": "Point", "coordinates": [8.638875, 40.68139]}}, {"type": "Feature", "properties": {"name": "CAMPOMIGLIAIO", "id": "S06659", "region_code": 13, "region": "Toscana", "city": "A"}, "geometry": {"type": "Point", "coordinates": [11.303593, 43.937241]}}, {"type": "Feature", "properties": {"name": "CAMPORA S.GIOV. SERRA AIELLO", "id": "S11745", "region_code": 17, "region": "Calabria", "city": "A"}, "geometry": {"type": "Point", "coordinates": [16.09102, 39.068402]}}, {"type": "Feature", "properties": {"name": "CAMPORGIANO", "id": "S06324", "region_code": 13, "region": "Toscana", "city": "A"}, "geometry": {"type": "Point", "coordinates": [10.334849, 44.161448]}}, {"type": "Feature", "properties": {"name": "CAMPOSAMPIERO", "id": "S02525", "region_code": 12, "region": "Veneto", "city": "Camposampiero"}, "geometry": {"type": "Point", "coordinates": [11.928293, 45.568922]}}, {"type": "Feature", "properties": {"name": "CAMPOSANTO", "id": "S05314", "region_code": 8, "region": "Emilia Romagna", "city": "A"}, "geometry": {"type": "Point", "coordinates": [11.143587, 44.787527]}}, {"type": "Feature", "properties": {"name": "CAMUCIA CORTONA", "id": "S06921", "region_code": 13, "region": "Toscana", "city": "A"}, "geometry": {"type": "Point", "coordinates": [11.971245, 43.261104]}}, {"type": "Feature", "properties": {"name": "CANCELLIERA", "id": "S08735", "region_code": 5, "region": "Lazio", "city": "A"}, "geometry": {"type": "Point", "coordinates": [12.621758, 41.710587]}}, {"type": "Feature", "properties": {"name": "CANCELLO", "id": "S09213", "region_code": 18, "region": "Campania", "city": "Cancello"}, "geometry": {"type": "Point", "coordinates": [14.418877, 40.993063]}}, {"type": "Feature", "properties": {"name": "CANCELLO ARNONE", "id": "S09002", "region_code": 18, "region": "Campania", "city": "A"}, "geometry": {"type": "Point", "coordinates": [14.02901, 41.063369]}}, {"type": "Feature", "properties": {"name": "CANDELA", "id": "S11204", "region_code": 16, "region": "Puglia", "city": "A"}, "geometry": {"type": "Point", "coordinates": [15.533163, 41.151439]}}, {"type": "Feature", "properties": {"name": "CANDELO", "id": "S00071", "region_code": 3, "region": "Piemonte", "city": "A"}, "geometry": {"type": "Point", "coordinates": [8.100103, 45.547433]}}, {"type": "Feature", "properties": {"name": "CANDIA CANAVESE", "id": "S00157", "region_code": 3, "region": "Piemonte", "city": "A"}, "geometry": {"type": "Point", "coordinates": [7.891819, 45.329824]}}, {"type": "Feature", "properties": {"name": "CANDIA LOMELLINA", "id": "S00333", "region_code": 1, "region": "Lombardia", "city": "A"}, "geometry": {"type": "Point", "coordinates": [8.593156, 45.179911]}}, {"type": "Feature", "properties": {"name": "CANDIDA", "id": "S11105", "region_code": 16, "region": "Puglia", "city": "A"}, "geometry": {"type": "Point", "coordinates": [15.996588, 41.346664]}}, {"type": "Feature", "properties": {"name": "CANDIOLO", "id": "S00512", "region_code": 3, "region": "Piemonte", "city": "A"}, "geometry": {"type": "Point", "coordinates": [7.598973, 44.961155]}}, {"type": "Feature", "properties": {"name": "CANDOGLIA ORNAVASSO", "id": "S01011", "region_code": 3, "region": "Piemonte", "city": "A"}, "geometry": {"type": "Point", "coordinates": [8.419715, 45.977489]}}, {"type": "Feature", "properties": {"name": "CANEGRATE", "id": "S01034", "region_code": 1, "region": "Lombardia", "city": "A"}, "geometry": {"type": "Point", "coordinates": [8.926593, 45.569235]}}, {"type": "Feature", "properties": {"name": "CANELLI", "id": "S00832", "region_code": 3, "region": "Piemonte", "city": "A"}, "geometry": {"type": "Point", "coordinates": [8.294544, 44.716716]}}, {"type": "Feature", "properties": {"name": "CANETRA", "id": "S07429", "region_code": 5, "region": "Lazio", "city": "A"}, "geometry": {"type": "Point", "coordinates": [13.029159, 42.391578]}}, {"type": "Feature", "properties": {"name": "CANICATTI`", "id": "S12375", "region_code": 14, "region": "Sicilia", "city": "Canicatti`"}, "geometry": {"type": "Point", "coordinates": [13.855395, 37.359879]}}, {"type": "Feature", "properties": {"name": "CANIGA", "id": "S12812", "region_code": 20, "region": "Sardegna", "city": "A"}, "geometry": {"type": "Point", "coordinates": [8.526395, 40.716116]}}, {"type": "Feature", "properties": {"name": "CANNARA", "id": "S07009", "region_code": 6, "region": "Umbria", "city": "A"}, "geometry": {"type": "Point", "coordinates": [12.628709, 43.019591]}}, {"type": "Feature", "properties": {"name": "CANNE DELLA BATTAGLIA", "id": "S11406", "region_code": 16, "region": "Puglia", "city": "A"}, "geometry": {"type": "Point", "coordinates": [16.146169, 41.294583]}}, {"type": "Feature", "properties": {"name": "CANNETO SULL`OGLIO", "id": "S01848", "region_code": 1, "region": "Lombardia", "city": "A"}, "geometry": {"type": "Point", "coordinates": [10.37147, 45.150211]}}, {"type": "Feature", "properties": {"name": "CANOSA DI PUGLIA", "id": "S11402", "region_code": 16, "region": "Puglia", "city": "A"}, "geometry": {"type": "Point", "coordinates": [16.053906, 41.218556]}}, {"type": "Feature", "properties": {"name": "CANTALUPO DEL SANNIO", "id": "S09451", "region_code": 7, "region": "Molise", "city": "A"}, "geometry": {"type": "Point", "coordinates": [14.6671, 41.5174]}}, {"type": "Feature", "properties": {"name": "CANTU`", "id": "S01451", "region_code": 1, "region": "Lombardia", "city": "A"}, "geometry": {"type": "Point", "coordinates": [9.130321, 45.752316]}}, {"type": "Feature", "properties": {"name": "CANTU`- CERMENATE", "id": "S01313", "region_code": 1, "region": "Lombardia", "city": "A"}, "geometry": {"type": "Point", "coordinates": [9.099284, 45.716236]}}, {"type": "Feature", "properties": {"name": "CAORSO", "id": "S01970", "region_code": 8, "region": "Emilia Romagna", "city": "A"}, "geometry": {"type": "Point", "coordinates": [9.868157, 45.042048]}}, {"type": "Feature", "properties": {"name": "CAPACCIO ROCCADASPIDE", "id": "S11702", "region_code": 18, "region": "Campania", "city": "A"}, "geometry": {"type": "Point", "coordinates": [15.013551, 40.454518]}}, {"type": "Feature", "properties": {"name": "CAPACI", "id": "S12145", "region_code": 14, "region": "Sicilia", "city": "A"}, "geometry": {"type": "Point", "coordinates": [13.232398, 38.171794]}}, {"type": "Feature", "properties": {"name": "CAPALBIO", "id": "S08006", "region_code": 13, "region": "Toscana", "city": "A"}, "geometry": {"type": "Point", "coordinates": [11.370982, 42.407974]}}, {"type": "Feature", "properties": {"name": "CAPANNELLE", "id": "S08672", "region_code": 5, "region": "Lazio", "city": "A"}, "geometry": {"type": "Point", "coordinates": [12.568884, 41.830713]}}, {"type": "Feature", "properties": {"name": "CAPISTRELLO", "id": "S08850", "region_code": 19, "region": "Abruzzo", "city": "A"}, "geometry": {"type": "Point", "coordinates": [13.399276, 41.97051]}}, {"type": "Feature", "properties": {"name": "CAPO BONIFATI", "id": "S11734", "region_code": 17, "region": "Calabria", "city": "A"}, "geometry": {"type": "Point", "coordinates": [15.874052, 39.558342]}}, {"type": "Feature", "properties": {"name": "CAPO D`ORLANDO-NASO", "id": "S12030", "region_code": 14, "region": "Sicilia", "city": "A"}, "geometry": {"type": "Point", "coordinates": [14.744844, 38.157941]}}, {"type": "Feature", "properties": {"name": "CAPO SPARTIVENTO", "id": "S11858", "region_code": 17, "region": "Calabria", "city": "A"}, "geometry": {"type": "Point", "coordinates": [16.058342, 37.924778]}}, {"type": "Feature", "properties": {"name": "CAPODACQUA PIEVE FANONICA", "id": "S07215", "region_code": 6, "region": "Umbria", "city": "A"}, "geometry": {"type": "Point", "coordinates": [12.7541, 43.026769]}}, {"type": "Feature", "properties": {"name": "CAPPELLE-MAGLIANO", "id": "S08525", "region_code": 19, "region": "Abruzzo", "city": "A"}, "geometry": {"type": "Point", "coordinates": [13.372468, 42.059369]}}, {"type": "Feature", "properties": {"name": "CAPRALBA", "id": "S01603", "region_code": 1, "region": "Lombardia", "city": "A"}, "geometry": {"type": "Point", "coordinates": [9.640015, 45.443871]}}, {"type": "Feature", "properties": {"name": "CAPRANICA", "id": "S08311", "region_code": 5, "region": "Lazio", "city": "A"}, "geometry": {"type": "Point", "coordinates": [12.157194, 42.245195]}}, {"type": "Feature", "properties": {"name": "CAPRAROLA", "id": "S08110", "region_code": 5, "region": "Lazio", "city": "A"}, "geometry": {"type": "Point", "coordinates": [12.258238, 42.303815]}}, {"type": "Feature", "properties": {"name": "CAPRIATI AL VOLTURNO", "id": "S09061", "region_code": 7, "region": "Molise", "city": "A"}, "geometry": {"type": "Point", "coordinates": [14.070664, 41.44279]}}, {"type": "Feature", "properties": {"name": "CAPRIOLO", "id": "S01622", "region_code": 1, "region": "Lombardia", "city": "A"}, "geometry": {"type": "Point", "coordinates": [9.933806, 45.64556]}}, {"type": "Feature", "properties": {"name": "CAPRIVA", "id": "S03301", "region_code": 10, "region": "Friuli-Venezia Giulia", "city": "A"}, "geometry": {"type": "Point", "coordinates": [13.517494, 45.938764]}}, {"type": "Feature", "properties": {"name": "CAPUA", "id": "S09208", "region_code": 18, "region": "Campania", "city": "A"}, "geometry": {"type": "Point", "coordinates": [14.210347, 41.101306]}}, {"type": "Feature", "properties": {"name": "CARATE-CALO`", "id": "S01486", "region_code": 1, "region": "Lombardia", "city": "A"}, "geometry": {"type": "Point", "coordinates": [9.252304, 45.676451]}}, {"type": "Feature", "properties": {"name": "CARAVAGGIO", "id": "S01602", "region_code": 1, "region": "Lombardia", "city": "A"}, "geometry": {"type": "Point", "coordinates": [9.637723, 45.491158]}}, {"type": "Feature", "properties": {"name": "CARBONA", "id": "S05120", "region_code": 8, "region": "Emilia Romagna", "city": "A"}, "geometry": {"type": "Point", "coordinates": [11.09618, 44.246876]}}, {"type": "Feature", "properties": {"name": "CARBONARA SCRIVIA", "id": "S04300", "region_code": 3, "region": "Piemonte", "city": "A"}, "geometry": {"type": "Point", "coordinates": [8.853772, 44.860173]}}, {"type": "Feature", "properties": {"name": "CARBONIA SERBARIU", "id": "S12818", "region_code": 20, "region": "Sardegna", "city": "Carbonia Serbariu"}, "geometry": {"type": "Point", "coordinates": [8.509186, 39.169508]}}, {"type": "Feature", "properties": {"name": "CARDILLO ZEN", "id": "S12140", "region_code": 14, "region": "Sicilia", "city": "A"}, "geometry": {"type": "Point", "coordinates": [13.296897, 38.17495]}}, {"type": "Feature", "properties": {"name": "CARENTINO", "id": "S00839", "region_code": 3, "region": "Piemonte", "city": "A"}, "geometry": {"type": "Point", "coordinates": [8.470474, 44.831303]}}, {"type": "Feature", "properties": {"name": "CARIATI", "id": "S11818", "region_code": 17, "region": "Calabria", "city": "A"}, "geometry": {"type": "Point", "coordinates": [16.952018, 39.496884]}}, {"type": "Feature", "properties": {"name": "CARIMATE", "id": "S01315", "region_code": 1, "region": "Lombardia", "city": "A"}, "geometry": {"type": "Point", "coordinates": [9.107188, 45.697094]}}, {"type": "Feature", "properties": {"name": "CARINI", "id": "S12127", "region_code": 14, "region": "Sicilia", "city": "A"}, "geometry": {"type": "Point", "coordinates": [13.186624, 38.147696]}}, {"type": "Feature", "properties": {"name": "CARINI TORRE CIACHEA", "id": "S12799", "region_code": 14, "region": "Sicilia", "city": "A"}, "geometry": {"type": "Point", "coordinates": [13.219641, 38.16149]}}, {"type": "Feature", "properties": {"name": "CARISIO", "id": "S00055", "region_code": 3, "region": "Piemonte", "city": "A"}, "geometry": {"type": "Point", "coordinates": [8.21249, 45.403164]}}, {"type": "Feature", "properties": {"name": "CARMAGNOLA", "id": "S00601", "region_code": 3, "region": "Piemonte", "city": "Carmagnola"}, "geometry": {"type": "Point", "coordinates": [7.72797, 44.846944]}}, {"type": "Feature", "properties": {"name": "CARMIGNANO DI BRENTA", "id": "S02532", "region_code": 12, "region": "Veneto", "city": "A"}, "geometry": {"type": "Point", "coordinates": [11.714891, 45.621354]}}, {"type": "Feature", "properties": {"name": "CARNATE USMATE", "id": "S01511", "region_code": 1, "region": "Lombardia", "city": "Carnate Usmate"}, "geometry": {"type": "Point", "coordinates": [9.375089, 45.653072]}}, {"type": "Feature", "properties": {"name": "CARNIA", "id": "S03016", "region_code": 10, "region": "Friuli-Venezia Giulia", "city": "A"}, "geometry": {"type": "Point", "coordinates": [13.132847, 46.373634]}}, {"type": "Feature", "properties": {"name": "CARONIA", "id": "S12025", "region_code": 14, "region": "Sicilia", "city": "A"}, "geometry": {"type": "Point", "coordinates": [14.443761, 38.034475]}}, {"type": "Feature", "properties": {"name": "CAROVIGNO", "id": "S11133", "region_code": 16, "region": "Puglia", "city": "A"}, "geometry": {"type": "Point", "coordinates": [17.683791, 40.737337]}}, {"type": "Feature", "properties": {"name": "CAROVILLI-ROCCASICURA", "id": "S08914", "region_code": 7, "region": "Molise", "city": "A"}, "geometry": {"type": "Point", "coordinates": [14.299732, 41.712485]}}, {"type": "Feature", "properties": {"name": "CARPANE`VALSTAGNA", "id": "S02502", "region_code": 12, "region": "Veneto", "city": "A"}, "geometry": {"type": "Point", "coordinates": [11.661183, 45.860128]}}, {"type": "Feature", "properties": {"name": "CARPI", "id": "S02349", "region_code": 8, "region": "Emilia Romagna", "city": "A"}, "geometry": {"type": "Point", "coordinates": [10.891952, 44.782919]}}, {"type": "Feature", "properties": {"name": "CARPIGNANO SESIA", "id": "S00971", "region_code": 3, "region": "Piemonte", "city": "A"}, "geometry": {"type": "Point", "coordinates": [8.422898, 45.528934]}}, {"type": "Feature", "properties": {"name": "CARPINONE", "id": "S09050", "region_code": 7, "region": "Molise", "city": "Carpinone"}, "geometry": {"type": "Point", "coordinates": [14.326783, 41.588038]}}, {"type": "Feature", "properties": {"name": "CARRARA AVENZA", "id": "S06005", "region_code": 13, "region": "Toscana", "city": "A"}, "geometry": {"type": "Point", "coordinates": [10.062927, 44.051239]}}, {"type": "Feature", "properties": {"name": "CARRITO-ORTONA", "id": "S08533", "region_code": 19, "region": "Abruzzo", "city": "A"}, "geometry": {"type": "Point", "coordinates": [13.720179, 42.026506]}}, {"type": "Feature", "properties": {"name": "CARRUBA", "id": "S12326", "region_code": 14, "region": "Sicilia", "city": "A"}, "geometry": {"type": "Point", "coordinates": [15.196143, 37.694344]}}, {"type": "Feature", "properties": {"name": "CARRU` CLAVESANA", "id": "S00738", "region_code": 3, "region": "Piemonte", "city": "A"}, "geometry": {"type": "Point", "coordinates": [7.891414, 44.479548]}}, {"type": "Feature", "properties": {"name": "CARSOLI", "id": "S08519", "region_code": 19, "region": "Abruzzo", "city": "Carsoli"}, "geometry": {"type": "Point", "coordinates": [13.080388, 42.09578]}}, {"type": "Feature", "properties": {"name": "CASABIANCA", "id": "S08730", "region_code": 5, "region": "Lazio", "city": "A"}, "geometry": {"type": "Point", "coordinates": [12.60431, 41.788327]}}, {"type": "Feature", "properties": {"name": "CASACALENDA GUARDIALFIERA", "id": "S09465", "region_code": 7, "region": "Molise", "city": "A"}, "geometry": {"type": "Point", "coordinates": [14.849602, 41.738109]}}, {"type": "Feature", "properties": {"name": "CASAL SABINI", "id": "S11309", "region_code": 16, "region": "Puglia", "city": "A"}, "geometry": {"type": "Point", "coordinates": [16.647908, 40.799021]}}, {"type": "Feature", "properties": {"name": "CASALBORDINO POLLUTRI", "id": "S07821", "region_code": 19, "region": "Abruzzo", "city": "A"}, "geometry": {"type": "Point", "coordinates": [14.633045, 42.193653]}}, {"type": "Feature", "properties": {"name": "CASALBUONO", "id": "S09910", "region_code": 18, "region": "Campania", "city": "A"}, "geometry": {"type": "Point", "coordinates": [15.686095, 40.214093]}}, {"type": "Feature", "properties": {"name": "CASALBUTTANO", "id": "S01609", "region_code": 1, "region": "Lombardia", "city": "A"}, "geometry": {"type": "Point", "coordinates": [9.962361, 45.255398]}}, {"type": "Feature", "properties": {"name": "CASALE MONFERRATO", "id": "S00314", "region_code": 3, "region": "Piemonte", "city": "Casale Monferrato"}, "geometry": {"type": "Point", "coordinates": [8.460292, 45.133928]}}, {"type": "Feature", "properties": {"name": "CASALE POPOLO", "id": "S00179", "region_code": 3, "region": "Piemonte", "city": "Casale Popolo"}, "geometry": {"type": "Point", "coordinates": [8.44055, 45.160434]}}, {"type": "Feature", "properties": {"name": "CASALECCHIO DI RENO", "id": "S05101", "region_code": 8, "region": "Emilia Romagna", "city": "A"}, "geometry": {"type": "Point", "coordinates": [11.276097, 44.474298]}}, {"type": "Feature", "properties": {"name": "CASALECCHIO GARIBALDI", "id": "S05111", "region_code": 8, "region": "Emilia Romagna", "city": "A"}, "geometry": {"type": "Point", "coordinates": [11.272474, 44.482995]}}, {"type": "Feature", "properties": {"name": "CASALEGGIO", "id": "S00972", "region_code": 3, "region": "Piemonte", "city": "A"}, "geometry": {"type": "Point", "coordinates": [8.490369, 45.491298]}}, {"type": "Feature", "properties": {"name": "CASALETTO VAPRIO", "id": "S01604", "region_code": 1, "region": "Lombardia", "city": "A"}, "geometry": {"type": "Point", "coordinates": [9.631746, 45.408641]}}, {"type": "Feature", "properties": {"name": "CASALMAGGIORE", "id": "S01850", "region_code": 1, "region": "Lombardia", "city": "Casalmaggiore"}, "geometry": {"type": "Point", "coordinates": [10.425023, 44.993139]}}, {"type": "Feature", "properties": {"name": "CASALNUOVO", "id": "S09216", "region_code": 18, "region": "Campania", "city": "A"}, "geometry": {"type": "Point", "coordinates": [14.35296, 40.915559]}}, {"type": "Feature", "properties": {"name": "CASALPUSTERLENGO", "id": "S01827", "region_code": 1, "region": "Lombardia", "city": "Casalpusterlengo"}, "geometry": {"type": "Point", "coordinates": [9.653627, 45.182473]}}, {"type": "Feature", "properties": {"name": "CASARSA", "id": "S02830", "region_code": 10, "region": "Friuli-Venezia Giulia", "city": "Casarsa"}, "geometry": {"type": "Point", "coordinates": [12.8406, 45.953002]}}, {"type": "Feature", "properties": {"name": "CASCINA", "id": "S06505", "region_code": 13, "region": "Toscana", "city": "A"}, "geometry": {"type": "Point", "coordinates": [10.545225, 43.674542]}}, {"type": "Feature", "properties": {"name": "CASERTA", "id": "S09211", "region_code": 18, "region": "Campania", "city": "Caserta"}, "geometry": {"type": "Point", "coordinates": [14.328457, 41.068655]}}, {"type": "Feature", "properties": {"name": "CASINO DI TERRA", "id": "S06751", "region_code": 13, "region": "Toscana", "city": "A"}, "geometry": {"type": "Point", "coordinates": [10.662975, 43.328581]}}, {"type": "Feature", "properties": {"name": "CASLETTO-ROGENO", "id": "S01457", "region_code": 1, "region": "Lombardia", "city": "A"}, "geometry": {"type": "Point", "coordinates": [9.275375, 45.786028]}}, {"type": "Feature", "properties": {"name": "CASORATE SEMPIONE", "id": "S01029", "region_code": 1, "region": "Lombardia", "city": "A"}, "geometry": {"type": "Point", "coordinates": [8.743954, 45.675075]}}, {"type": "Feature", "properties": {"name": "CASORIA", "id": "S09009", "region_code": 18, "region": "Campania", "city": "A"}, "geometry": {"type": "Point", "coordinates": [14.29874, 40.907762]}}, {"type": "Feature", "properties": {"name": "CASSAGO-NIBIONNO-BULCIAGO", "id": "S01490", "region_code": 1, "region": "Lombardia", "city": "A"}, "geometry": {"type": "Point", "coordinates": [9.279834, 45.746243]}}, {"type": "Feature", "properties": {"name": "CASSANO ALL`IONIO", "id": "S11900", "region_code": 17, "region": "Calabria", "city": "A"}, "geometry": {"type": "Point", "coordinates": [16.35218, 39.726326]}}, {"type": "Feature", "properties": {"name": "CASSANO D`ADDA", "id": "S01707", "region_code": 1, "region": "Lombardia", "city": "Cassano d`Adda"}, "geometry": {"type": "Point", "coordinates": [9.512746, 45.514372]}}, {"type": "Feature", "properties": {"name": "CASSANO IRPINO", "id": "S09611", "region_code": 18, "region": "Campania", "city": "A"}, "geometry": {"type": "Point", "coordinates": [15.031213, 40.869227]}}, {"type": "Feature", "properties": {"name": "CASSINE", "id": "S00864", "region_code": 3, "region": "Piemonte", "city": "A"}, "geometry": {"type": "Point", "coordinates": [8.533613, 44.751513]}}, {"type": "Feature", "properties": {"name": "CASSINO", "id": "S08671", "region_code": 5, "region": "Lazio", "city": "A"}, "geometry": {"type": "Point", "coordinates": [13.832125, 41.484306]}}, {"type": "Feature", "properties": {"name": "CASSOLA", "id": "S02506", "region_code": 12, "region": "Veneto", "city": "A"}, "geometry": {"type": "Point", "coordinates": [11.795866, 45.732291]}}, {"type": "Feature", "properties": {"name": "CASTAGNARO", "id": "S02368", "region_code": 12, "region": "Veneto", "city": "A"}, "geometry": {"type": "Point", "coordinates": [11.403936, 45.119349]}}, {"type": "Feature", "properties": {"name": "CASTAGNETO CARDUCCI", "id": "S06029", "region_code": 13, "region": "Toscana", "city": "A"}, "geometry": {"type": "Point", "coordinates": [10.56399, 43.16816]}}, {"type": "Feature", "properties": {"name": "CASTAGNO", "id": "S05122", "region_code": 13, "region": "Toscana", "city": "A"}, "geometry": {"type": "Point", "coordinates": [10.91538, 44.012359]}}, {"type": "Feature", "properties": {"name": "CASTAGNOLE DELLE LANZE", "id": "S00828", "region_code": 3, "region": "Piemonte", "city": "Castagnole L."}, "geometry": {"type": "Point", "coordinates": [8.152836, 44.749341]}}, {"type": "Feature", "properties": {"name": "CASTEGGIO", "id": "S01942", "region_code": 1, "region": "Lombardia", "city": "A"}, "geometry": {"type": "Point", "coordinates": [9.124595, 45.017365]}}, {"type": "Feature", "properties": {"name": "CASTEL BAGNOLO DI ORTE", "id": "S08114", "region_code": 5, "region": "Lazio", "city": "A"}, "geometry": {"type": "Point", "coordinates": [12.400781, 42.400183]}},