Nome Stazione;Latitudine;Longitudine
Firenze Santa Maria Novella;43.7775;11.2532
Firenze Campo di Marte;43.7908;11.2700
Pisa Centrale;43.7167;10.4000
Livorno Centrale;43.5469;10.3092
Lucca;43.8440;10.5020
Siena;43.3188;11.3308
Grosseto;42.7633;11.1136
Arezzo;43.4628;11.8780
Prato Centrale;43.8775;11.1006
Empoli;43.7178;10.9486
Viareggio;43.8703;10.2561
